mot0_state_s;mot0_vel_s;mot0_vel_ds;stp_setpoint_x_cons;stp_setpoint_y_cons;stp_setpoint_z_cons;stp_setpoint_psi_cons;sys_state_px;sys_state_py;sys_state_pz;sys_state_vx;sys_state_vy;sys_state_vz;sys_state_qr;sys_state_qx;sys_state_qy;sys_state_qz;sys_state_wx;sys_state_wy;sys_state_wz;sys_euler_roll;sys_euler_pitch;sys_euler_yaw;ctlvtol_command_fx;ctlvtol_command_fy;ctlvtol_command_fz;ctlvtol_att_roll;ctlvtol_att_pitch;ctlvtol_att_yaw;ctlvtol_att_A;ctlatt_command_s0;ctlatt_command_s1;ctlatt_command_s2;ctlatt_command_s3;ctlatt_command_Gr;ctlatt_command_Gp;ctlatt_command_Gy;ctlmot0_command_u;ctlmot0_integral_int;ctlmot0_integral_corr;ctlmot1_command_u;ctlmot1_integral_int;ctlmot1_integral_corr;ctlmot2_command_u;ctlmot2_integral_int;ctlmot2_integral_corr;ctlmot3_command_u;ctlmot3_integral_int;ctlmot3_integral_corr;mot1_state_s;mot1_vel_s;mot1_vel_ds;mot2_state_s;mot2_vel_s;mot2_vel_ds;mot3_state_s;mot3_vel_s;mot3_vel_ds;t
0.0;0.0;2265.144863915715;0;0;0;0;0.0;0.0;0.0;2.349619;-2.409138;4.907362;1.0;0.0;0.0;0.0;1.0;-0.5;1.5;0.0;-0.0;0.0;-2.458050961716269;2.520316688708769;-5.1338305842733964;-0.4451396531945797;-0.48396019073636204;0.0;5.853253039665644;421.9998579465421;479.3792496480107;414.07342879507553;355.14204865143216;-0.08864519468320431;0.00566614970023645;-0.1853;12.0;0.0;-0.0;12.0;0.0;-0.0;12.0;0.0;-0.0;12.0;0.0;-0.0;0.0;0.0;2265.144863915715;0.0;0.0;2265.144863915715;0.0;0.0;2265.144863915715;0.0
22.555862500047027;22.555862500047027;2245.6651308294845;0;0;0;0;0.023496189649305714;-0.02409138070456606;0.048583331058333484;2.349618894892548;-2.409138211479045;4.809304211222639;0.9999559029695785;0.004996095998129693;-0.002522645393788542;0.00754104775804019;0.9984363632494708;-0.5090861070432736;1.5164596176287184;0.00995399945703495;-0.005120442277676561;0.015056989993844331;-2.468558667211855;2.531090902932753;-5.052974678035951;-0.44122027278693154;-0.4786759262590441;0.0;5.927013832123465;425.6254496559892;481.6329535075068;415.5405753196219;358.5524310096108;-0.0884159399838504;0.007253010877505014;-0.19427548210777623;12.0;-4.030695871559422;-0.0;12.0;-4.816329535075068;-0.0;12.0;-4.155405753196219;-0.0;12.0;-3.5855243100961083;-0.0;22.555862500047027;22.555862500047027;2245.6651308294845;22.555862500047027;22.555862500047027;2245.6651308294845;22.555862500047027;22.555862500047027;2245.6651308294845;0.01
44.90618884258332;44.90618884258332;2224.0515149278963;0;0;0;0;0.0469923688830484;-0.04818278249617134;0.09618734275007956;2.3496167115309974;-2.409142641113139;4.71149811782389;0.9998208182731324;0.009983616994373716;-0.005089825692546171;0.015256225410387394;0.9968085549857758;-0.5175860800841061;1.5700240019906382;0.019810737360046543;-0.010482643981407793;0.030411712049641965;-2.4790641938865483;2.5418695394047472;-4.971944117667206;-0.4373768034890059;-0.4735255902398731;0.0;6.001136955056018;429.3573217234521;483.8574526094009;416.78943749271366;362.09908640077356;-0.08806695459274314;0.00909230470779701;-0.20800649895224152;12.0;-7.875207200368109;-0.0;12.0;-9.429345436168607;-0.0;12.0;-8.097741503122885;-0.0;12.0;-6.980956549103373;-0.0;44.90618884258332;44.90618884258332;2224.0515149278963;44.90618884258332;44.90618884258332;2224.0515149278963;44.90618884258332;44.90618884258332;2224.0515149278963;0.02
67.03006878688699;67.03006878688699;2200.3909207604265;0;0;0;0;0.07048848575104948;-0.07227431167435566;0.14281619603898832;2.349605958044223;-2.4091646740144643;4.614272493681263;0.9995862672297354;0.014960581864690925;-0.007701752081450434;0.023327202379822238;0.9950776419648669;-0.5257515697978148;1.6595667221704786;0.029557595531004708;-0.016095803264261188;0.04642734592250604;-2.48956072704471;2.5526666484816256;-4.8910847103851784;-0.43363108148217094;-0.46853150408373384;0.0;6.075339271046537;433.20341196486;486.01424205160913;417.7896148782843;365.80740505791346;-0.08754754192893535;0.011215063931362651;-0.22653473638783095;12.0;-11.53694063214784;-0.0;12.0;-13.840425968258863;-0.0;12.0;-11.826575763479894;-0.0;12.0;-10.189968711256673;-0.0;67.03006878688699;67.03006878688699;2200.3909207604265;67.03006878688699;67.03006878688699;2200.3909207604265;67.03006878688699;67.03006878688699;2200.3909207604265;0.03
88.9074955221466;88.9074955221466;2174.777005709485;0;0;0;0;0.09398440086178383;-0.0963662570690496;0.1884772856830895;2.3495756624243676;-2.409227423828368;4.517945303344467;0.9992378048643614;0.019923815194120856;-0.010361565948166953;0.03192943577741615;0.9932034292295472;-0.5338276665644791;1.7838393863132787;0.03917506182969731;-0.021981419312542407;0.06345520994801361;-2.5000367259963348;2.56350653964307;-4.8107324014399655;-0.430004430616268;-0.46371208464142133;0.0;6.149343536682227;437.1664212356954;488.06279200659077;418.51655436979274;369.70507965304347;-0.08680254378210468;0.013644409406164798;-0.2498799130233387;12.0;-15.019529889283328;-0.0;12.0;-18.0507532004559;-0.0;12.0;-15.341440619308953;-0.0;12.0;-13.216718819918238;-0.0;88.9074955221466;88.9074955221466;2174.777005709485;88.9074955221466;88.9074955221466;2174.777005709485;88.9074955221466;88.9074955221466;2174.777005709485;0.04
110.519429414285;110.519429414285;2147.309418031545;0;0;0;0;0.11747984466385102;-0.12045918560468317;0.233181125720814;2.3495107939656608;-2.4093633873252007;4.422822418668455;0.9987544979561768;0.02486895021824265;-0.013075171661119243;0.04123139596690508;0.9911446075240925;-0.5420517159015882;1.9414831593655162;0.048636200829707474;-0.02817226254563777;0.08183349448177953;-2.5104763458404338;2.5744234628808234;-4.731211880308859;-0.4265175889732642;-0.4590821854049079;0.0;6.222880073886328;441.24252591697694;489.95987077528247;418.9529996587263;373.8228876546708;-0.08577114070848486;0.016393214895139726;-0.2780416674151076;12.0;-18.326760854310248;-0.0;12.0;-22.06127695298726;-0.0;12.0;-18.64189566067475;-0.0;12.0;-16.06587274124348;-0.0;110.519429414285;110.519429414285;2147.309418031545;110.519429414285;110.519429414285;2147.309418031545;110.519429414285;110.519429414285;2147.309418031545;0.05
131.8478539806033;131.8478539806033;2118.093006094963;0;0;0;0;0.14097437923527828;-0.1445540341892179;0.2769412227139819;2.349392743660452;-2.4096140553349485;4.329196453656809;0.9981081863188733;0.029790426380547574;-0.015851043563631196;0.051393806214935625;0.988858735744906;-0.5506521217972649;2.13104085467522;0.05790606297158326;-0.03471116944664027;0.10188619115621464;-2.5208599229423987;2.585461242772471;-4.652835305081757;-0.42319066135128786;-0.45465344980011346;0.0;6.295688388054709;445.4200233743168;491.65886821194545;419.090640039388;378.1953493737761;-0.08438569594499126;0.019461537919300838;-0.31100189245208365;12.0;-21.46248254824738;-0.0;12.0;-25.872671340963862;-0.0;12.0;-21.72760776692578;-0.0;12.0;-18.74263194083839;-0.0;131.8478539806033;131.8478539806033;2118.093006094963;131.8478539806033;131.8478539806033;2118.093006094963;131.8478539806033;131.8478539806033;2118.093006094963;0.06
152.87582385559702;152.87582385559702;2087.237009078932;0;0;0;0;0.16446736516184643;-0.1686521975367582;0.3197739379619036;2.3491998618313517;-2.410029488946902;4.237345723917341;0.9972625732745518;0.034681477461772615;-0.01870000606748807;0.0625688807632339;0.9863020804903576;-0.5598471468182066;2.3509694380657167;0.06694099493186749;-0.041649635302879545;0.12392224126307379;-2.5311645225647244;2.5966728743987204;-4.575901152277225;-0.42004309517279503;-0.4504346679629795;0.0;6.367518716475148;449.6779093090559;493.1091774996612;418.9319987916022;382.8611614551481;-0.08257076314598437;0.022833803145226223;-0.34872755643951836;12.0;-24.43050340278197;-0.0;12.0;-29.485284576154445;-0.0;12.0;-24.59844921503577;-0.0;12.0;-21.25276501558384;-0.0;152.87582385559702;152.87582385559702;2087.237009078932;152.87582385559702;152.87582385559702;2087.237009078932;152.87582385559702;152.87582385559702;2087.237009078932;0.07
173.5875046132544;173.5875046132544;2054.854239230114;0;0;0;0;0.18795793406552466;-0.19275561161699656;0.361698339955306;2.3489080507155613;-2.410667868953308;4.1475333352276476;0.9961721939943216;0.03953410747353751;-0.021634985995636707;0.07489954365534732;0.9834293372572599;-0.5698437167888889;2.599652784273364;0.07568782957925953;-0.04904617743980309;0.1482349290628129;-2.5413645465127073;2.6081200893141747;-4.500693197361883;-0.41709367685583837;-0.446432130164855;0.0;6.438133493730563;453.98437548744425;494.2556901095189;418.49260701954574;387.86331102307145;-0.0802423819885177;0.02647571715348603;-0.3911740378736009;12.0;-27.234472111523868;-0.0;12.0;-32.89908323869366;-0.0;12.0;-27.254617046675257;-0.0;12.0;-23.602639887258583;-0.0;173.5875046132544;173.5875046132544;2054.854239230114;173.5875046132544;173.5875046132544;2054.854239230114;173.5875046132544;173.5875046132544;2054.854239230114;0.08
193.96820441052506;193.96820441052506;2021.060265427576;0;0;0;0;0.21144496731935236;-0.21686683249882327;0.40273604837457905;2.3484914093540006;-2.411595025360386;4.060006403875914;0.9947813121729057;0.044339052802634504;-0.024670736523748085;0.0885186088203688;0.9801932596645426;-0.5808362361325026;2.875414529812059;0.08408295046849341;-0.05696444061545256;0.17510154747435505;-2.5514323982653946;2.619872898605803;-4.427479629344817;-0.4143605453947646;-0.44264997172357257;0.0;6.507308723910791;458.2952114102485;495.03845479514507;417.8035013298509;393.2487863257268;-0.07730778653130808;0.030330898491759805;-0.43828898127967336;12.0;-29.8777421815211;-0.0;12.0;-36.113592740512566;-0.0;12.0;-29.69677701384122;-0.0;12.0;-25.799252704383306;-0.0;193.96820441052506;193.96820441052506;2021.060265427576;193.96820441052506;193.96820441052506;2021.060265427576;193.96820441052506;193.96820441052506;2021.060265427576;0.09
214.00439751174764;214.00439751174764;1985.972607300596;0;0;0;0;0.2349270814577966;-0.2409891104171123;0.44291107095484794;2.347922927991333;-2.4128839524689707;3.9749954097221076;0.9930227965171848;0.0490857304035495;-0.027823532200460112;0.10354790062492958;0.976544224255845;-0.5930054179397648;3.1765308731414863;0.092051242944672;-0.06547101523445303;0.20478336399694144;-2.5613392028966175;2.632009118718843;-4.356512301027203;-0.41186121974349404;-0.43909050575655006;0.0;6.574835252396963;462.55209183588585;495.3925476024558;416.9140610930367;399.0678158850533;-0.07366564963579089;0.0343172233425889;-0.4900166509978084;12.0;-32.36321912476249;-0.0;12.0;-39.12783617243188;-0.0;12.0;-31.92623558066634;-0.0;12.0;-27.85024881912859;-0.0;214.00439751174764;214.00439751174764;1985.972607300596;214.00439751174764;214.00439751174764;1985.972607300596;214.00439751174764;214.00439751174764;1985.972607300596;0.1
233.68373984315164;233.68373984315164;1949.709948498628;0;0;0;0;0.2584026207639475;-0.2651264589394745;0.48224963454192243;2.3471752292671653;-2.41461431356782;3.8927136813527397;0.990817028903271;0.053762173125544696;-0.03111083459921763;0.12009729366915115;0.9724297589552802;-0.6065171307837968;3.501243182157469;0.09950496122997637;-0.07463293828649468;0.2375259132295445;-2.57105557915612;2.6446138842246367;-4.288026114843525;-0.4096126365452798;-0.4357545414796615;0.0;6.640519932662926;466.6807309127114;495.2481974377048;415.8951602146193;405.3725896628485;-0.06920698372610859;0.03832291286956327;-0.5463027139827136;12.0;-34.69318903545808;-0.0;12.0;-41.94027417169145;-0.0;12.0;-33.945143207695054;-0.0;12.0;-29.763930740639598;-0.0;233.68373984315164;233.68373984315164;1949.709948498628;233.68373984315164;233.68373984315164;1949.709948498628;233.68373984315164;233.68373984315164;1949.709948498628;0.11
252.99507680882138;252.99507680882138;1912.3913769513938;0;0;0;0;0.28186965748904524;-0.2892837191423132;0.5207800116499002;2.346221353762479;-2.416871937690883;3.8133570113108437;0.9880708959294765;0.05835495448964743;-0.03455092819779541;0.13826365127648155;0.9677940631589002;-0.6215212624904654;3.847770280131718;0.10634255808474738;-0.08451484692423798;0.27355963807619743;-2.5805524613661497;2.6577791500542878;-4.222238542769113;-0.4076311947717142;-0.4326416869228251;0.0;6.704186685888247;470.588880168258;494.53121257008877;414.8425449122349;412.215441488592;-0.0638168152537684;0.042202421293785854;-0.6070993168116686;12.0;-36.869127069052446;-0.0;12.0;-44.54874889896082;-0.0;12.0;-35.756731258385884;-0.0;12.0;-31.549247757094;-0.0;252.99507680882138;252.99507680882138;1912.3913769513938;252.99507680882138;252.99507680882138;1912.3913769513938;252.99507680882138;252.99507680882138;1912.3913769513938;0.12
271.9284436736913;271.9284436736913;1874.1356591043605;0;0;0;0;0.3053260001377288;-0.3134666187214275;0.5585323438050476;2.345035587930276;-2.4197483091490795;3.7371033982021507;0.9846769150772913;0.06284910636658317;-0.038162526132785854;0.15812964409609098;0.9625775467892369;-0.6381505997221566;4.214320293914121;0.11244754072356579;-0.09517575598499206;0.3131008934379764;-2.5898019692653342;2.6716031839080356;-4.159349277521817;-0.4059328038865709;-0.429750635922703;0.0;6.765677453124807;474.1641394411266;493.16376008338784;413.8802571863356;419.64649952654884;-0.05737674978896813;0.04577222308603594;-0.6723702317130905;12.0;-38.8914840267268;-0.0;12.0;-46.950435731706484;-0.0;12.0;-37.36558306216103;-0.0;12.0;-33.215761984271275;-0.0;271.9284436736913;271.9284436736913;1874.1356591043605;271.9284436736913;271.9284436736913;1874.1356591043605;271.9284436736913;271.9284436736913;1874.1356591043605;0.13
290.47505888444414;290.47505888444414;1835.0605541957539;0;0;0;0;0.32876921023564243;-0.33768182596002805;0.5955384629238198;2.343594333035965;-2.4233400486201355;3.6641129115374316;0.9805125458676034;0.0672280340199238;-0.0419643455806541;0.17976243361179609;0.9567164144836967;-0.6565197215040326;4.599101962067119;0.1176874338924302;-0.10666543420806963;0.3563533123588098;-2.5987783245482765;2.6861900475332736;-4.099540011284818;-0.4045329322057478;-0.42707944007304965;0.0;6.824853041225559;477.27153588885994;491.0655662058001;413.16379745874116;427.7108369567455;-0.04976854987467975;0.04880664510050202;-0.7420957280276896;12.0;-40.75944879677096;-0.0;12.0;-49.141806957027576;-0.0;12.0;-38.77793660001153;-0.0;12.0;-34.77358591710182;-0.0;290.47505888444414;290.47505888444414;1835.0605541957539;290.47505888444414;290.47505888444414;1835.0605541957539;290.47505888444414;290.47505888444414;1835.0605541957539;0.14
308.62731075506724;308.62731075506724;1795.2821736806236;0;0;0;0;0.3521966279855827;-0.3619369984542336;0.6318317119280229;2.341877014385423;-2.427748382413203;3.5945276744985337;0.9754397352978577;0.07147343384513083;-0.0459746527226765;0.20321221017316288;0.9501423194970574;-0.6767239048230281;5.000335315220306;0.12191294909716771;-0.11902036013718978;0.4035095133982868;-2.6074588135271273;2.701649063287102;-4.042974337454003;-0.40344665215626463;-0.4246257669746621;0.0;6.881593864640987;479.7508070583151;488.1556352845326;412.8825558716827;436.4451731756702;-0.04087886248630763;0.05103395130012566;-0.8162766773323074;12.0;-42.470683759803435;-0.0;12.0;-51.118612721028455;-0.0;12.0;-40.00201156988391;-0.0;12.0;-36.23328706001408;-0.0;308.62731075506724;308.62731075506724;1795.2821736806236;308.62731075506724;308.62731075506724;1795.2821736806236;308.62731075506724;308.62731075506724;1795.2821736806236;0.15
326.3787379899883;326.3787379899883;1754.9143899289843;0;0;0;0;0.37560540721426405;-0.38624082645019464;0.667446765750012;2.3398670307180622;-2.4330785940556985;3.5284719594398335;0.9693047454491608;0.07556521983516486;-0.050210777605678596;0.22851058140321615;0.942782109941853;-0.69883804121063;5.41626165591715;0.12495747921828108;-0.1322592485534095;0.4547530974422494;-2.615824795966613;2.718094259795537;-3.9897977704977765;-0.40268867912347783;-0.42238714663866755;0.0;6.935800585414049;481.4133023717933;484.35463490203597;413.2608449566009;445.8741813388461;-0.030605260885356096;0.05213297667596249;-0.8949372235664259;12.0;-44.02102940362148;-0.0;12.0;-52.875885962498145;-0.0;12.0;-41.04834691189925;-0.0;12.0;-37.60575576585187;-0.0;326.3787379899883;326.3787379899883;1754.9143899289843;326.3787379899883;326.3787379899883;1754.9143899289843;326.3787379899883;326.3787379899883;1754.9143899289843;0.16
343.7240045541009;343.7240045541009;1714.0682973508992;0;0;0;0;0.39899256001277844;-0.4106030705746068;0.7024194538285453;2.3375527440400425;-2.4394394495173914;3.4660523908843404;0.9619383093892402;0.07948146532184457;-0.054688599756952644;0.25566881439919187;0.9345576877321712;-0.7229155647748136;5.845152780200521;0.12663706211212716;-0.1463781528011831;0.5102608401812163;-2.623862760560629;2.735643787526017;-3.940137878938914;-0.40227340050165045;-0.4203612082636506;0.0;6.987394653141776;482.0383981153248;479.58817142994434;414.55665871190854;456.0064470977991;-0.018863808895549724;0.05173074384880157;-0.9781251494788523;12.0;-45.40417333923372;-0.0;12.0;-54.407980296897705;-0.0;12.0;-41.930126119118455;-0.0;12.0;-38.90203285692998;-0.0;343.7240045541009;343.7240045541009;1714.0682973508992;343.7240045541009;343.7240045541009;1714.0682973508992;343.7240045541009;343.7240045541009;1714.0682973508992;0.17
360.6588694257407;360.6588694257407;1672.851728151469;0;0;0;0;0.42235501147698024;-0.43503459363766983;0.736786585144823;2.3349285101745303;-2.4469425841477803;3.40735825106681;0.9531561592469233;0.08319836686830064;-0.059422006185120516;0.2846759438748535;0.9253859980935268;-0.7489873944181911;6.285319397807992;0.12675098783803926;-0.16134516900473495;0.5702049312513271;-2.6315654275217413;2.754419291655421;-3.8941045267518435;-0.4022148914223807;-0.41854590982635154;0.0;7.036318745194057;481.3693105090639;473.79129182892274;417.05711295423174;466.83009575223656;-0.005598411675509912;0.04940170987728609;-1.0659088604708729;12.0;-46.611277750066954;-0.0;12.0;-55.70865316964592;-0.0;11.375889494406888;-42.66345720311976;0.0;12.0;-40.13309376891133;-0.0;360.6588694257407;360.6588694257407;1672.851728151469;359.4950723430304;359.4950723430304;1557.9180882510166;360.6588694257407;360.6588694257407;1672.851728151469;0.18
377.18015178612086;377.18015178612086;1631.3688240105448;0;0;0;0;0.4456896880541718;-0.45954731769984986;0.7705854365639329;2.332000401852744;-2.455688019988393;3.3523938911615914;0.942784649744901;0.08669464944724108;-0.06441428163531897;0.31542343331466655;0.9152086173344651;-0.7763076763960877;6.703959690710741;0.12511053287945395;-0.17707253239908843;0.6345983521910409;-2.6389377752955228;2.774530741824223;-3.8517189366330027;-0.4025213176960894;-0.4169360175120617;0.0;7.082593215008689;479.2200964724018;467.23948403826085;421.0287568291257;477.9215584759529;0.008632319923040657;0.04479061720197786;-1.1543344602494747;12.0;-47.631677196929765;-0.0;12.0;-56.774459315771125;-0.0;10.188765843157837;-43.27879404798072;0.0;12.0;-41.30572065941345;-0.0;377.18015178612086;377.18015178612086;1631.3688240105448;372.66886716189873;372.66886716189873;1300.9285660266341;377.18015178612086;377.18015178612086;1631.3688240105448;0.19
393.2856922073716;393.2856922073716;1589.719664130318;0;0;0;0;0.46899364281483014;-0.48415408451877556;0.8038528973104136;2.328787841975513;-2.465759410052759;3.301077531829314;0.9307302368097492;0.08996275380056966;-0.06963967283032887;0.3475604194737552;0.9040605608191982;-0.8031541879860489;7.036041854837853;0.1216147145210973;-0.19336929965237204;0.7029734722702673;-2.6459988052183014;2.796071394535916;-3.8129120525921048;-0.40319437932894725;-0.4155234606759195;0.0;7.1263166341037465;475.7806042785675;460.73325349364114;426.3737383071487;488.3357554564684;0.022398160700955346;0.03810958897966439;-1.234970591385128;12.0;-48.45662631764173;-0.0;12.0;-57.60999033284633;-0.0;9.412194728539337;-43.81584275943322;0.0;12.0;-42.41727669611693;-0.0;393.2856922073716;393.2856922073716;1589.719664130318;384.06658857431495;384.06658857431495;1125.2271204789545;393.2856922073716;393.2856922073716;1589.719664130318;0.2
408.97431040178463;408.97431040178463;1547.9999493105736;0;0;0;0;0.49226415788113026;-0.5088685897328018;0.8366251549016772;2.3253173321527627;-2.477243750724395;3.253350657266937;0.9170365061341093;0.09301630848598318;-0.07503672268214372;0.38047536454034764;0.892104264640276;-0.8278634927680386;7.23398148508105;0.11630957955291159;-0.2099424928788956;0.7742960835121966;-2.6527750264440537;2.819138385823372;-3.777638841945168;-0.404237980164341;-0.41430354569077565;0.0;7.167575442264749;471.65306828554856;455.14426151189224;432.4954030192907;497.2084793686456;0.03425127705938823;0.030270713427752366;-1.3010467283315752;10.808302907931802;-49.083413896479364;0.0;11.508590372145623;-58.228576025891535;0.0;8.899364305481242;-44.30013090388297;0.0;12.0;-43.45650456772967;-0.0;408.05898968235573;408.05898968235573;1457.7056432722595;394.2184736927363;394.2184736927363;1001.9884588433958;408.97431040178463;408.97431040178463;1547.9999493105736;0.21
422.02681566531675;422.02681566531675;1287.4791308720648;0;0;0;0;0.5154988944266986;-0.5337051517572408;0.868936820987377;2.3216381682689433;-2.4901780529038047;3.208956792339183;0.9019476952774549;0.09590210098443938;-0.08050845768804225;0.413293515859071;0.8800810724151785;-0.8502175136199271;7.220793426844383;0.1094569638875819;-0.22643018430218473;0.8468851309754197;-2.659316963845346;2.843776837983598;-3.7456464723522798;-0.4056390308926665;-0.41326302329580045;0.0;7.206623143105304;468.20648380539603;451.85591364356065;438.12036177678016;503.23673072039674;0.04195779158602918;0.023314020363266453;-1.3413721178394402;9.11407052640423;-49.545210577880155;0.0;9.648094411883639;-58.666545265503586;0.0;8.461369446359601;-44.73914978472341;0.0;12.0;-44.39912877091579;-0.0;418.97565743896195;418.97565743896195;1076.8617457583944;403.29123898488467;403.29123898488467;895.2842839739651;424.24576008786124;424.24576008786124;1506.3007410053078;0.22
431.5707355105678;431.5707355105678;941.1644427484001;0;0;0;0;0.5386961352884361;-0.558678085778782;0.9008186718420905;2.317825143713388;-2.5045240916103046;3.1673854327389916;0.8859370888280018;0.09870944775785549;-0.08593040911687078;0.4449582950696766;0.8701369253979989;-0.8706246472708019;6.970701102280626;0.10157041952781522;-0.242469942793539;0.9185004086284242;-2.6657020944936787;2.8699531639472378;-3.716414643943086;-0.40736119912750035;-0.41237717652363387;0.0;7.2439202999059855;466.807066122094;451.7340688136529;441.97644842988865;505.7344547735448;0.04420663769452386;0.01929363589267025;-1.3507907019907137;7.994300255421262;-49.89757388399542;0.0;8.516190851509869;-58.994129379250495;0.0;7.946399770589425;-45.12600187917345;0.0;12.0;-45.214015717772625;-0.0;427.48986736639387;427.48986736639387;839.6932338880576;411.16596873803434;411.16596873803434;776.9155910989168;439.1006815151159;439.1006815151159;1464.7082536917346;0.23
438.76707660479076;438.76707660479076;709.5292911696804;0;0;0;0;0.5618548968115207;-0.583801396081297;0.9322970418486409;2.3139499227682028;-2.5202582185725704;3.1282586332176128;0.8696927347482742;0.10156904967389907;-0.09115943851697178;0.4743503262818325;0.8639009717998491;-0.8886761007755456;6.447104168711741;0.09340176528859999;-0.25776499634723055;0.9865310407613487;-2.6720049499838328;2.897648887011129;-3.6895597468649766;-0.40937775335536863;-0.4116301816979632;0.0;7.279819257188358;468.637934523344;455.62022409693947;443.0370445988007;503.9014482166972;0.039609483176972174;0.019955435623283672;-1.3224905252366448;7.456112951161476;-50.19628246318095;0.0;8.054004551368234;-59.27543294655595;0.0;7.257687827228722;-45.444712637781116;0.0;10.754272632947147;-45.862023384788436;0.0;434.91029271210425;434.91029271210425;731.6896158063403;417.54805909520076;417.54805909520076;629.5526126625928;451.22257313420135;451.22257313420135;1194.86884826488;0.24
444.76090534830666;444.76090534830666;590.8791670206494;0;0;0;0;0.5849749436772709;-0.6090887196379358;0.9633942979886696;2.310090120860048;-2.5373304827673353;3.091160771797647;0.8540533876955663;0.10463499403802318;-0.09604510174471662;0.5004194914461654;0.8612037319295724;-0.9030206244011542;5.677808197435296;0.08586322854681434;-0.2721241943209636;1.0482638376696445;-2.6783066223590786;2.926817849614901;-3.6646569815273082;-0.41165676892337405;-0.41100538516598384;0.0;7.31469957707683;473.4730154062105;463.2884542117997;441.5196866111626;497.8566755029644;0.028407441294053905;0.02499768856799896;-1.258052803806862;7.359028510991929;-50.483403563759985;0.0;8.104452437883172;-59.559214561552906;0.0;6.448122844121786;-45.68442891294073;0.0;8.885179834163534;-46.32836440847607;0.0;442.2186582209993;442.2186582209993;720.517506171239;422.25066370031067;422.25066370031067;463.825582965133;459.52208318359635;459.52208318359635;817.9111773963045;0.25
450.405088309174;450.405088309174;556.3364882243789;0;0;0;0;0.6080568151637389;-0.6345531243050602;0.9941287182905328;2.3063225550460786;-2.5556768998661594;3.0556896332343655;0.83985003482648;0.10804941294218624;-0.10045359793321618;0.5223852199546645;0.860641148644474;-0.9117573289034959;4.723785712621082;0.0798529995108604;-0.28548072082984033;1.1013933564238163;-2.6846877148596224;2.957398958756858;-3.641293745140456;-0.41416545289489737;-0.4104874183415881;0.0;7.3489246550987035;479.92401787053967;473.9019444028018;438.7212747752294;488.2134173855882;0.011772741245607258;0.032362353620252804;-1.1638272446853228;7.469206266520148;-50.778592859373646;0.0;8.479047146346854;-59.876047423370935;0.0;5.673979585520571;-45.84913502368992;0.0;7.024186283879516;-46.61527775049599;0.0;450.01883151474783;450.01883151474783;768.8679933228306;425.38416810687187;425.38416810687187;309.03653711072184;464.1205263145828;464.1205263145828;453.11240522772664;0.26
456.0936882135244;456.0936882135244;560.640967301666;0;0;0;0;0.6311017819799315;-0.6602070546635235;1.024514915212226;2.3027162096399643;-2.575236803084944;3.021514329365848;0.8277996110905328;0.11192171945346513;-0.1042753461962734;0.5397666021240959;0.8603430172011839;-0.9129896043576686;3.6435514157975426;0.07615205942041553;-0.29784565123561074;1.144198994569245;-2.6912209636167903;2.989334313342864;-3.6191304143598666;-0.416875502819007;-0.4100646497284496;0.0;7.382794602204749;486.24022438039344;486.600072987036;436.3943373858779;475.57526123128804;-0.00906967065509262;0.039321055078095676;-1.0463747119290152;7.561089655121375;-51.080058221042336;0.0;9.025250221380713;-60.241859838093816;0.0;5.109591454715276;-45.95923671647998;0.0;5.222583009345194;-46.729825099663046;0.0;458.61341303679995;458.61341303679995;847.0100035874635;427.3813534484822;427.3813534484822;196.95818485871507;465.2343903512152;465.2343903512152;109.74999332238838;0.27
461.7899350394897;461.7899350394897;561.3206453254409;0;0;0;0;0.6541117567904517;-0.6860623596938095;1.0545644883845389;2.299330025765602;-2.595951766927872;2.9883632264481355;0.8184513072027506;0.11632018571063786;-0.10742404712167825;0.5523288388581147;0.858188976294387;-0.905364056262969;2.4922164754229925;0.07538177360965663;-0.3092420102600743;1.1755333215659722;-2.6979688851828323;3.0225680906391172;-3.597888007398526;-0.41976230169306455;-0.40972797485074697;0.0;7.416555088219028;490.766069925968;500.55712129728886;436.307753221348;460.5614378556297;-0.03286670756372505;0.04316628228843908;-0.9122958854735569;7.463007577772316;-51.36981956990712;0.0;9.62488215153624;-60.6612969206987;0.0;4.8982775521562685;-46.048500714208636;0.0;3.5236493406666614;-46.68309557470719;0.0;468.07568096008976;468.07568096008976;932.3239397039815;428.9304034271449;428.9304034271449;152.75802495975984;463.15577173964846;463.15577173964846;-204.81293477345764;0.28
467.1388003468993;467.1388003468993;527.0222610732537;0;0;0;0;0.6770891829886446;-0.7121303131375182;1.0842865735115388;2.2962107931612805;-2.6177652593600302;2.956015228870154;0.8121538910326036;0.12126820179933068;-0.10983728876796775;0.5600320084683222;0.851986776098659;-0.8885252794230483;1.3207391590901443;0.07797706594025587;-0.31965358476823635;1.1947987146424939;-2.7049815213023325;3.0570461914989107;-3.5773393109720453;-0.4228044239928411;-0.4094698803334412;0.0;7.450403728127725;492.2465729499641;514.983197546391;439.8123335153313;443.8698474182537;-0.058300100723341075;0.041785388887809694;-0.7681101793616821;7.078060575559994;-51.620897295937766;0.0;10.186886548370518;-61.130372086561714;0.0;5.113149514486533;-46.1573200150905;0.0;1.971335261092852;-46.49023633149324;0.0;478.3064028688442;478.3064028688442;1007.807540987897;430.83685959495057;430.83685959495057;187.99550464087974;458.2498666808061;458.2498666808061;-483.4388961364314;0.29
471.6155759771082;471.6155759771082;441.04684810923527;0;0;0;0;0.7000369042554759;-0.7384216325108043;1.1136883107701145;2.2933914457137474;-2.6406227331339918;2.9242923778515206;0.8090450767908026;0.1267451882789231;-0.11147866440020376;0.5629868811546622;0.8396350229578887;-0.8633796788358512;0.17466560550733912;0.08417150521141799;-0.3289973176496598;1.2019116333116509;-2.712294597452281;3.0927163444068864;-3.557301346910326;-0.425983285309833;-0.4092836821764478;0.0;7.484495762352982;489.9872613096687;529.1231776506037;447.5052270717258;426.33193423551376;-0.08397161822625654;0.03405173273079392;-0.6200725124402081;6.385941315709848;-51.80461414926337;0.0;10.64142655539073;-61.63853983437931;0.0;5.735601200930062;-46.32400368985825;0.0;0.6163440403048841;-46.17105700704032;0.0;489.0783858390661;489.0783858390661;1060.8659350115636;433.84938442237296;433.84938442237296;297.0466722205001;450.96432674526477;450.96432674526477;-718.0413917430022;0.3
474.67366120328495;474.67366120328495;301.25447790156704;0;0;0;0;0.7229580198976553;-0.7649464995221549;1.1427752393084811;2.2908899394624878;-2.6644718028629213;2.893052459977956;0.8090629272825739;0.13269187815580663;-0.11234039194071821;0.5614175643022271;0.8192863119632049;-0.8321139826362722;-0.9079378132158236;0.09399382167988606;-0.3371214997858424;1.1972483118708275;-2.719928284372898;3.1295282998549534;-3.5376278160112724;-0.4292828057689246;-0.4091628733683047;0.0;7.518950064084763;483.900355318049;542.285759569229;459.1146542318458;408.9152542889867;-0.10846714666435332;0.019984161365263278;-0.4738516078187858;5.432797244438159;-51.896881090411014;0.0;10.93842127958504;-62.17061357168094;0.0;6.6608077883035826;-46.57665638795298;0.0;-0.4845350069480858;-45.750566282477536;0.0;500.0773337442071;500.0773337442071;1082.9444373128617;438.5004695742776;438.5004695742776;458.5715138587627;441.8376804628701;441.8376804628701;-899.6726854376;0.31
475.86901269475294;475.86901269475294;117.75011204868042;0;0;0;0;0.7458557318250794;-0.7917145829673666;1.1715516198471367;2.288708703215731;-2.6892625339424097;2.8621820116709085;0.811977211913555;0.1390192684961244;-0.11244492366584133;0.5556282835328653;0.789506911988858;-0.7979727413408532;-1.8987653501299417;0.10727820258311448;-0.34382587724855623;1.1815656405552781;-2.727886554896497;3.1674341428364445;-3.51820192394702;-0.43268910289519896;-0.40910059649451236;0.0;7.5538551174493085;474.4533298880717;553.8986919842195;473.65859084805226;392.65270074934665;-0.13049661302754267;0.0006442438318479573;-0.33412296238475675;4.313135241979076;-51.882724262344205;0.0;11.04923342161796;-62.708827154081064;0.0;7.730718042929476;-46.92823760069073;0.0;-1.2767714758653672;-45.2587164853423;0.0;510.94488906695807;510.94488906695807;1069.7374255607824;445.01281037188846;445.01281037188846;641.9935499224276;431.4926249020937;431.4926249020937;-1020.0137713669682;0.32
474.94692661655273;474.94692661655273;-90.83210433585452;0;0;0;0;0.7687331883954169;-0.8187350667293263;1.200020695481574;2.286834547635944;-2.7149481384734844;2.831590953798378;0.8174349005706789;0.14561984073132767;-0.11184429842025663;0.5459724335763393;0.7494098790341884;-0.7648565082971067;-2.780603365572183;0.12369003836582133;-0.3488951192695337;1.1558989210238941;-2.7361570190025573;3.206389033406982;-3.498930884903316;-0.4361903135524782;-0.4090892948896797;0.0;7.589273960117447;462.53432382354174;563.56240012238;489.7900340646369;378.5133721737031;-0.14905232605936786;-0.02219261662478735;-0.20423753329993513;3.146755720864902;-51.758598234414094;0.0;10.967967981030098;-63.235002264635284;0.0;8.780131483523634;-47.37600983761821;0.0;-1.7210870201802764;-44.72892395805839;0.0;521.3229247858853;521.3229247858853;1021.3027739284025;453.29406343024385;453.29406343024385;816.2294786755165;420.6059398031606;420.6059398031606;-1073.6839231873382;0.33
471.8830265990032;471.8830265990032;-301.8326079301123;0;0;0;0;0.791593329158586;-0.8460166874083145;1.228184909733275;2.2852389142530405;-2.7414861703377675;2.8012094129396634;0.8250105831762646;0.15237903991772325;-0.11061687429934157;0.5328246174503939;0.6987323019262244;-0.7368399885293976;-3.546839725501019;0.1427648794421664;-0.35213521955369925;1.1214489603068134;-2.7447111148902055;3.2463524737396328;-3.4797426936650018;-0.4397765848021116;-0.40912055417845306;0.0;7.625247605970897;449.2683371548531;571.0746049771946;506.1567361670999;367.2602839174145;-0.16351540550227883;-0.04647147539181498;-0.08611956741648037;2.055134213100361;-51.532451339972596;0.0;10.709574263400604;-63.73251906654838;0.0;9.675321427177401;-47.904636564986774;0.0;-1.8054708701990543;-44.19546739920093;0.0;530.8929316053031;530.8929316053031;941.5701303175599;463.00395378531437;463.00395378531437;956.8364728299479;409.8573300060921;409.8573300060921;-1060.3311923110882;0.34
466.8789976321841;466.8789976321841;-493.0094119194685;0;0;0;0;0.814438733420249;-0.8735677846327312;1.256046099994716;2.283878367651233;-2.7688398368245712;2.770985991462883;0.8342521485351398;0.1591849876713087;-0.10886207246003585;0.5165583621860128;0.6378380794147092;-0.7177132442169268;-4.199167879974077;0.16395419493626615;-0.3534040739059509;1.079476956709739;-2.7535045561544025;3.287289702781588;-3.460584402371023;-0.4434401461847078;-0.4091850715742403;0.0;7.661797397620943;435.83338084195714;576.4169491071203;521.6422909691753;359.34704375988525;-0.1736729021619379;-0.0702467520100805;0.019563936696350027;1.142399417649874;-51.22199517207033;0.0;10.304425098752905;-64.18775924156655;0.0;10.332735121557938;-48.49101993682538;0.0;-1.5509308301272897;-43.69036453673886;0.0;539.403949470859;539.403949470859;837.2069192330482;473.6548207047923;473.6548207047923;1049.3115150464773;399.8691357380533;399.8691357380533;-985.5509908571404;0.35000000000000003
460.3232438132182;460.3232438132182;-645.9795189583817;0;0;0;0;0.8372714745725734;-0.9013963619527303;1.283605674215038;2.282695240000761;-2.7969787830811463;2.7408861601836265;0.8447150815218032;0.16593509765221767;-0.10669434287410334;0.4975322015864168;0.5676479927932525;-0.7106218882144878;-4.744292546216621;0.18666999784059327;-0.3526316847047911;1.0312231935844411;-2.7624779409167406;3.3291725441382622;-3.4414205180125346;-0.44717531399142424;-0.40927265736333646;0.0;7.698927121429801;423.31770006356254;579.7142936714043;535.4556889247657;354.8858819418673;-0.1796565954879129;-0.09192525627064647;0.1130425365118179;0.48422513541592815;-50.851939734573776;0.0;9.791168880302276;-64.590862683572;0.0;10.718245286897183;-49.10902861902511;0.0;-1.008761307873558;-43.240531998777;0.0;546.6860987217294;546.6860987217294;716.1987369950707;484.708423090427;484.708423090427;1088.7133594995444;391.15260015583414;391.15260015583414;-860.2562295340255;0.36
452.73243650931204;452.73243650931204;-748.0952840262119;0;0;0;0;0.8600929812796414;-0.9295101505880874;1.3108647677150276;2.28161835062962;-2.825878869041245;2.710889903109443;0.8559834745506554;0.17253931040212406;-0.10423753253511796;0.4760850916308325;0.4895169066306846;-0.7178403337676067;-5.190691208852414;0.21032220281294328;-0.3498298810144274;0.9778569700828347;-2.7715574425247276;3.3719792012163055;-3.4222306086150986;-0.450978324958912;-0.4093722040474238;0.0;7.736625374681354;412.63273336896174;581.1858180847039;547.1108501155239;353.6862210339011;-0.18184397542548092;-0.11035015576493505;0.19502954921967558;0.12456338676785705;-50.45094270317027;0.0;9.21017980515258;-64.93585987720175;0.0;10.83513128743015;-49.73305288927608;0.0;-0.25100781274533635;-42.86586820755767;0.0;552.6512607780821;552.6512607780821;586.5861949743503;495.647906420105;495.647906420105;1077.1995732441642;384.07290825514116;384.07290825514116;-698.8353222302085;0.37
444.68914086459034;444.68914086459034;-792.8340712373999;0;0;0;0;0.8829039060681273;-0.9579166654537218;1.3378243725841097;2.2805637709841813;-2.8555208503688894;2.6809885942708593;0.8676799276927134;0.17892056666946454;-0.10162035233810765;0.45253980807496397;0.40508560439283287;-0.7406742307046792;-5.546232790117853;0.23434624728346493;-0.34509410721516387;0.9204555694622153;-2.7806555510463427;3.4156929023499574;-3.4030060938074786;-0.4548469916353121;-0.40947161715158137;0.0;7.774868115326255;404.4704831977355;581.1033517925979;556.3582272192278;355.3368197246088;-0.18076140676076666;-0.12477707995994701;0.26637914782808125;0.07747399502635144;-50.04875612650172;0.0;8.599082243907578;-65.22038078734691;0.0;10.70951281733364;-50.34015609726731;0.0;0.6417758438707639;-42.57850732225234;0.0;557.2852156824254;557.2852156824254;455.6279414632029;506.02061996655726;506.02061996655726;1021.1406719953086;378.8374247092184;378.8374247092184;-516.8636902618757;0.38
436.78498945104303;436.78498945104303;-779.261851641565;0;0;0;0;0.9057040019317264;-0.986623243619564;1.3644854346005542;2.2794356732869607;-2.885888197730583;2.6511816237769876;0.879468551949303;0.18501359207196438;-0.09897302301555552;0.4272111627708108;0.31613176220573797;-0.7794659655701373;-5.816991328215869;0.25822190147020424;-0.3386001662803779;0.8600035158533615;-2.7896719059081163;3.460299636635196;-3.38374675851799;-0.4587802392226542;-0.40955774316830035;0.0;7.813621032630693;399.28386482976134;579.762960988921;563.1153644176002;359.2984090514756;-0.17701043128050037;-0.13480896913495807;0.32787633957485635;0.3308180553777671;-49.67374488028891;0.0;7.99054827367449;-65.44515824041187;0.0;10.378640766666186;-50.91110354177774;0.0;1.5915247614189036;-42.38311716567491;0.0;560.6358081013148;560.6358081013148;329.4140883795626;515.4577214426004;515.4577214426004;928.8248204918898;375.504255898366;375.504255898366;-329.0912646374684;0.39
429.5724836112134;429.5724836112134;-711.1957000045502;0;0;0;0;0.9284920082291087;-1.0156370583566507;1.3908489179955437;2.2781273540830544;-2.916964417143383;2.6214733332887694;0.8910552451433973;0.1907630566857779;-0.0964247146021465;0.40041513547846097;0.22443609651033605;-0.8336719352179466;-6.007174374067018;0.2814859198599731;-0.33059760040808006;0.7974013654742116;-2.798494315648961;3.505785356896841;-3.364457575987061;-0.4627775998137773;-0.40961633937086384;0.0;7.852841431170151;397.2763882186426;577.4675715977505;567.4178499255884;364.98452690579336;-0.17121810311823552;-0.14033498705029943;0.3801622737547692;0.8500580920640881;-49.3507839263632;0.0;7.4116676665768475;-65.61347587537622;0.0;9.883711773627613;-51.430704826607624;0.0;2.530346092755926;-42.277919875749184;0.0;562.8002678287613;562.8002678287613;212.78663777731845;523.6795428228727;523.6795428228727;809.0521252237274;374.0045997387966;374.0045997387966;-148.07164991171123;0.4
423.5251303040156;423.5251303040156;-596.3935441391993;0;0;0;0;0.9512655481631441;-1.0449651055130484;1.4169158428646629;2.2765225380677325;-2.948730224333955;2.591870599601374;0.9021880365422094;0.19612186809318083;-0.09410121484025319;0.37247539642417143;0.13167153668540357;-0.9019858955789519;-6.119826145129257;0.3037410665795094;-0.321399936914348;0.7334750523176127;-2.8070000760690834;3.5521330175549646;-3.345146196565922;-0.46683872498660023;-0.409632118396756;0.0;7.8924795280844435;398.40293662888126;574.5147623633269;569.3917949854847;371.8230112286804;-0.1640017057225638;-0.14148720942134588;0.42375821550389997;1.5823833622274215;-49.09956198961186;0.0;6.8839504857353955;-65.73062082072188;0.0;9.26641319306175;-51.88782734823374;0.0;3.404754196475138;-42.25610399064802;0.0;563.9129501030145;563.9129501030145;109.38337371048988;530.4940470785326;530.4940470785326;670.4548199673607;374.17229988886027;374.17229988886027;16.558368576469206;0.41000000000000003
419.0060922321112;419.0060922321112;-445.72202104417613;0;0;0;0;0.9740210410691171;-1.0746141622636811;1.4426873022911992;2.274497040656277;-2.981160877098564;2.5623811821943216;0.9126585131845144;0.20104995799263153;-0.09212236516119023;0.3437249227799786;0.03931827990611983;-0.9824907957884356;-6.1578661874202245;0.32466278958253075;-0.31137129997609203;0.668980601214788;-2.8150576702994266;3.599319765429014;-3.3258212266660223;-0.4709629585867787;-0.4095888832662138;0.0;7.932479235741783;402.3925777763156;571.1847344649824;569.23863678533;379.29946508785866;-0.15593824875276172;-0.1386064773105885;0.45913748755070305;2.4623025203948803;-48.9334268450539;0.0;6.423304310422214;-65.80333866434157;0.0;8.567477586928767;-52.27527324530171;0.0;4.177265981489606;-42.30737564263801;0.0;564.1334779489301;564.1334779489301;21.678957186210255;535.7923513586737;535.7923513586737;521.2112868007048;375.7756637715393;375.7756637715393;158.30873292559158;0.42
416.24775015036346;416.24775015036346;-272.08199237122915;0;0;0;0;0.9967536332494732;-1.1045907211019117;1.4681644667290463;2.2719208102562476;-3.0142239227325813;2.5330128177145346;0.922303861604115;0.2055135817216811;-0.09059909206190474;0.31450208125801504;-0.051394446000327124;-1.0728267445734452;-6.125050932601473;0.3440034065880358;-0.30090920728437026;0.6046030815044208;-2.8225288743905916;3.647314553694158;-3.306491283413702;-0.4751489982435363;-0.4094697528047933;0.0;7.972778582594138;408.8001129281383;567.7268386743626;567.2216298715266;386.9857311192986;-0.14753521520836682;-0.13220253252976485;0.4867995182083303;3.419171564850032;-48.85895047283165;0.0;6.039816228972222;-65.83927227159589;0.0;7.825715194550776;-52.58956603043024;0.0;4.826180045648059;-42.4194763161156;0.0;563.6349340374331;563.6349340374331;-49.009580645008555;539.5423620468505;539.5423620468505;368.86423492172435;378.54820037110807;378.54820037110807;273.73234293521887;0.43
415.3454963603796;415.3454963603796;-89.00115479303713;0;0;0;0;1.0194571509467756;-1.1349009042232465;1.493348582584351;2.2686602997010934;-3.047877555974851;2.5037729583821062;0.9310082815516691;0.20948494513327712;-0.08963019765647125;0.2851421840289138;-0.1395199085787212;-1.1703640763209358;-6.026566390845687;0.3615928599394289;-0.29042442515579747;0.5409517226793537;-2.8292712171539933;3.6960763857580816;-3.2871647203494145;-0.4793946622512124;-0.4092574629671846;0.0;8.013309950016216;417.0798808111973;564.3464356441826;563.6475518610468;394.5549853111206;-0.13920533985682187;-0.12290021005895592;0.5073159613101725;4.385633823405972;-48.87629431733983;0.0;5.737563492574704;-65.84638728766339;0.0;7.07673162730255;-52.8306179285722;0.0;5.344049665202155;-42.57954416551573;0.0;562.5921595037297;562.5921595037297;-102.51246115735057;541.7800798209282;541.7800798209282;220.09582705387356;382.21590205636204;382.21590205636204;362.08370164543066;0.44
416.26717878163754;416.26717878163754;90.91699053143338;0;0;0;0;1.0421240782050618;-1.1655503649452599;1.5182409704696267;2.264581051019849;-3.082069687208959;2.47466896522446;0.9387025297505724;0.2129419176103231;-0.08929931853799303;0.25596666203426816;-0.22439981908725495;-1.272369843382072;-5.8691370538331284;0.37733518104000174;-0.2803198792875247;0.4785544935051303;-2.835140674314726;3.745553296374565;-3.26784982879861;-0.4836967628370351;-0.4089347162534184;0.0;8.054000310509462;426.66439587552173;561.195426233736;558.8430717185413;401.78426157787624;-0.13125080510575754;-0.11137492664549212;0.5213384009105437;5.3049827317502105;-48.980266488278666;0.0;5.514800544457862;-65.83241995496346;0.0;6.351316655474073;-53.001247847548335;0.0;5.735176751258042;-42.77522776073087;0.0;561.1708473041557;561.1708473041557;-139.72971124994274;542.5981234195705;542.5981234195705;80.45813990169381;386.51931300115086;386.51931300115086;424.80212943637423;0.45
418.8759201968464;418.8759201968464;257.32038582839755;0;0;0;0;1.06474556099309;-1.196544183246835;1.5428430263664046;2.259550337823651;-3.11673770683813;2.4457084978176513;0.9453609251226824;0.2158676478111122;-0.08967252945575228;0.22727234178555944;-0.3056476970447327;-1.3761560470154273;-5.660710968179236;0.3912005690579745;-0.27097117657996767;0.41785517557512214;-2.839994434684864;3.79568205842831;-3.2485552461190674;-0.4880510701042595;-0.40848454280386104;0.0;8.09477164198887;437.02939498332125;558.3690387732064;553.1296339829044;408.5461242454309;-0.1238604708899914;-0.09828883342354071;0.5295737842190902;6.135726897693814;-49.16180123614342;0.0;5.364726728522089;-65.80440186965396;0.0;5.673957596901928;-53.10656295318167;0.0;6.012487076467969;-42.995495873173674;0.0;559.5184657119978;559.5184657119978;-162.45215452421394;542.1318671707987;542.1318671707987;-45.85836959724179;391.2293146197128;391.2293146197128;464.88867356219623;0.46
422.96088452286057;422.96088452286057;402.8981817089725;0;0;0;0;1.0873114373598578;-1.2278867619097398;1.5671562263305556;2.2534397048768566;-3.1518088398179764;2.4168998377588755;0.9509959200943342;0.21825000785500445;-0.09079695410727076;0.1993228716431319;-0.383114656130382;-1.4792000010328068;-5.409894723015713;0.40321393838294317;-0.26271101576568157;0.35921462339020216;-2.8436935704185546;3.8463885073820228;-3.229290296205528;-0.492452340211318;-0.40789063683983645;0.0;8.135541646244278;447.73458600164196;555.9093210516705;546.8019685014542;414.79276281342715;-0.11711972726302194;-0.0842398439330281;0.5327428453934508;6.852774997874101;-49.409538250931234;0.0;5.276777093989052;-65.76831042305068;0.0;5.061977941007726;-53.153263966488225;0.0;6.194242179292065;-43.23113035511082;0.0;557.7579034481126;557.7579034481126;-173.09473702440653;540.5444838014051;540.5444838014051;-156.13058866381482;396.156428433703;396.156428433703;486.26356834906665;0.47000000000000003
428.2695707497778;428.2695707497778;523.5339324536336;0;0;0;0;1.109810291900666;-1.2595817284679096;1.5911821331307965;2.2461272706243176;-3.187200942697232;2.388251958703115;0.9556509600164511;0.22008089265982392;-0.09270052189500191;0.17234342617600973;-0.4568439254240163;-1.579231273690305;-5.125337766918709;0.4134414558442963;-0.25581882991785976;0.30291631209197445;-2.846105470155991;3.8975883312499686;-3.2100650657272825;-0.49689438068302777;-0.40713764097236455;0.0;8.176224818568848;458.4393133935864;553.8137346326286;540.1138438323644;420.53660175621684;-0.11102911945966708;-0.06973068800057347;0.5315375861126976;7.445809765979899;-49.71123567736932;0.0;5.2381762516533925;-65.72886873489584;0.0;4.5255528941656715;-53.14895756679782;0.0;6.301041621176111;-43.47493208833596;0.0;555.9842176930841;555.9842176930841;-174.39215651764368;538.0125843852223;538.0125843852223;-249.0433404964234;401.15429712641765;401.15429712641765;493.18971259073066;0.48
434.5363828387928;434.5363828387928;617.9376759139177;0;0;0;0;1.1322295316733257;-1.2916318467115997;1.6149224019484503;2.237499701300697;-3.222823602178762;2.3597742762899663;0.9593926247812233;0.22135545992161443;-0.09539277795326032;0.1465188376716339;-0.5270205442377177;-1.674284487945399;-4.8152194072784065;0.4219767553463139;-0.2505158550203346;0.2491750847988487;-2.847105938186152;3.9491881802796405;-3.1908901450634444;-0.501370133013074;-0.4062113643429454;0.0;8.216733826663337;468.8990908409191;552.0462778610209;533.2720616714408;425.83108611222707;-0.10552664704558869;-0.05515838788452751;0.5265890281796678;7.9160150509906755;-50.05486275739058;0.0;5.235444248994532;-65.6894893365752;0.0;4.068535432512321;-53.10155233966;0.0;6.353436034465444;-43.72169997819405;0.0;554.2642812742322;554.2642812742322;-169.11422527659658;534.7139455794902;534.7139455794902;-324.4844311533701;406.11860173036746;406.11860173036746;489.82123057002127;0.49
441.50448151906767;441.50448151906767;686.9808208945833;0;0;0;0;1.1545554800095634;-1.3240389402286081;1.6383787821623903;2.2274538094508576;-3.258579426348712;2.3314761226568446;0.9623029816254758;0.2220714086298434;-0.0988664919432753;0.1219945810055001;-0.5939217075669752;-1.762721508642278;-4.486914828966746;0.4289282458498177;-0.24696487803410827;0.19814749529340078;-2.8465809086906324;4.001086983576106;-3.1717760793638474;-0.5058717623948997;-0.40509893327568636;0.0;8.256981091196113;478.95107144702234;550.5487546859947;526.4374765273012;430.7540291700505;-0.10050943748225712;-0.04081965611361572;0.5184498374043854;8.272315027641671;-50.42932865667013;0.0;5.255623079782445;-65.65233407069283;0.0;3.689812733727667;-53.01878764913811;0.0;6.370275672896687;-43.96805425259088;0.0;552.638708350305;552.638708350305;-159.84198663162078;530.8182288769023;530.8182288769023;-383.2513139105944;410.9828899356568;410.9828899356568;479.89837570235136;0.5
448.940137409104;448.940137409104;732.9535274148124;0;0;0;0;1.1767734843790136;-1.3568038295333043;1.661553113025758;2.2158977655525223;-3.2943654536752645;2.303366056584147;0.9644728080170653;0.2222283748862827;-0.10309974803220304;0.09887969430968191;-0.6578716734563055;-1.8432293110271265;-4.146846204723981;0.4344084307332436;-0.24527340336847409;0.14994222096201737;-2.844427761519409;4.0531773950075305;-3.152732644924852;-0.51039075189811;-0.40378888173911404;0.0;8.296880433202086;488.4954071937783;549.250644717502;519.7307202793022;435.3945061499636;-0.09585225000015285;-0.02692588123349612;0.5075909945555653;8.52794108165912;-50.824881354516876;0.0;5.287123569357481;-65.6184534343648;0.0;3.384855524554579;-52.907912563162114;0.0;6.367748560429371;-44.21217041473395;0.0;551.1252771548731;551.1252771548731;-148.82047569500264;526.4809321395109;526.4809321395109;-426.73431080163084;415.7126797648039;415.7126797648039;466.57756975824566;0.51
456.64034245575385;456.64034245575385;758.8971857339163;0;0;0;0;1.1988680344812588;-1.3899262836929045;1.6844473122317516;2.2027519360855328;-3.330074628045498;2.2754511359624106;0.9659960213587191;0.22182749212683972;-0.10805822027077147;0.07725070541915098;-0.7192035057943286;-1.9148008888109393;-3.800480910329062;0.43852564494223634;-0.24549888568685302;0.10462944561946978;-2.840556251748307;4.105347314679746;-3.1337680829682353;-0.5149180019666335;-0.40227119282367496;0.0;8.33634866134378;497.4770860028103;548.0769366461224;513.2402284166948;439.8432443971496;-0.09142194275955684;-0.013621929227104314;0.49440867609794725;8.697735229055644;-51.23324878998744;0.0;5.320204684707275;-65.58797002927729;0.0;3.1471817324982196;-52.77550552593395;0.0;6.358964154852396;-44.4534760610574;0.0;549.7231195927069;549.7231195927069;-137.88318233016741;521.840287394527;521.840287394527;-456.62785694979027;420.2989066186275;420.2989066186275;452.3670766307921;0.52
464.43518975452747;464.43518975452747;768.0866874596072;0;0;0;0;1.220822886957908;-1.4234049868944656;1.7070633575317844;2.187949376354775;-3.3655972991530105;2.247736258993778;0.9669653840120199;0.22087113228488334;-0.11369740950443466;0.057155823129950704;-0.7782285760831292;-1.9767062221229275;-3.4524226252029706;0.4413782199637538;-0.24765487597601585;0.06224862961489297;-2.8348890810180203;4.157481443613182;-3.1148884022193304;-0.5194439364013361;-0.4005373028175358;0.0;8.375307001083625;505.8705912436916;546.9539305456925;507.030665265022;444.18593370646005;-0.08708812696338061;-0.0010046595709406578;0.47923673810585804;8.796284725814076;-51.647602804879085;0.0;5.347160183024881;-65.56027813880715;0.0;2.969562349136721;-52.6274093046389;0.0;6.353912788045474;-44.692346331935724;0.0;548.4171119633895;548.4171119633895;-128.43211930754694;517.0165121411042;517.0165121411042;-474.6997869717246;424.7514407128847;424.7514407128847;439.13446892584216;0.53
472.18668419646;472.18668419646;763.6775277471049;0;0;0;0;1.242621193447735;-1.4572375200054954;1.7294032624521958;2.171436014565122;-3.4008227109627316;2.220223644402056;0.9674693803694893;0.2193628211112018;-0.11996470486404776;0.038618911798420016;-0.8352138200909621;-2.028459114228938;-3.1065445746992912;0.4430508432301287;-0.25171725592716904;0.022814527795272408;-2.8273621473718813;4.209462832652108;-3.0960968242696096;-0.5239586145812846;-0.39858007796100847;0.0;8.41368230354305;513.6681502529149;545.8133309794657;501.1505120303084;448.4987555186133;-0.08273070508004741;0.01086117860898927;0.46236087115955526;8.83679987268956;-52.06241746544364;0.0;5.362304241733767;-65.53424032896791;0.0;2.8448991419481198;-52.46874930353094;0.0;6.359652627683668;-44.92981947999301;0.0;547.1820899318745;547.1820899318745;-121.45497181779001;512.1127154601763;512.1127154601763;-482.62905753825316;429.0931067620192;429.0931067620192;428.1566514783058;0.54
479.78545289334033;479.78545289334033;748.498452822441;0;0;0;0;1.2642456290976292;-1.4914203568143296;1.7514690476748984;2.1531705675656068;-3.4356404419698507;2.192912484434504;0.9675900827607982;0.217307305518155;-0.1268012103240264;0.0216430074563109;-0.8903662091613976;-2.0697841340033905;-2.7661273136251663;0.44361276691410395;-0.25763006893501966;-0.013678386672248917;-2.817924514583577;4.261174387508348;-3.0773934077659835;-0.5284518479779274;-0.39639377187687375;0.0;8.451408004376619;520.8714437610761;544.5950269930499;495.6381687542036;452.84552699993964;-0.0782450446469601;0.021930635942766907;0.444031774568277;8.830571957688711;-52.473277374121;0.0;5.361836325284615;-65.50836969957966;0.0;2.766776747256876;-52.30400383647122;0.0;6.3806162567669675;-45.16734368237221;0.0;545.9866716728102;545.9866716728102;-117.56353382154623;507.216792950551;507.216792950551;-481.90873320912385;433.35442389776745;433.35442389776745;420.19129390132946;0.55
487.14649184698624;487.14649184698624;724.956604611438;0;0;0;0;1.2856785190557418;-1.5259488742852336;1.7732627098403722;2.133124229883088;-3.4699417629323226;2.165798775727349;0.9674018081046677;0.214710741813116;-0.13414333303376072;0.006213310588992348;-0.9438236447484073;-2.1005863434935588;-2.433978569143009;0.44311749815363477;-0.2653107260643267;-0.047252784952227296;-2.806538143409565;4.31250029373765;-3.0587748575192446;-0.5329133178252604;-0.3939739697262721;0.0;8.488424827867915;527.4862486281868;543.2489035681439;490.52634463759773;457.2760247984428;-0.07354539715850839;0.0321699287906084;0.42447599256521534;8.786839805224398;-52.876674941933004;0.0;5.343643713120601;-65.480992018533;0.0;2.729733108685011;-52.13709935334168;0.0;6.418968619555565;-45.406559691378966;0.0;544.7965878998665;544.7965878998665;-117.04214350833331;502.4037519222317;502.4037519222317;-473.80374697845696;437.5691488995563;437.5691488995563;415.55635649574174;0.56
494.2047413142017;494.2047413142017;695.0210121851198;0;0;0;0;1.3069019608879162;-1.5608173758428532;1.7947861894869577;2.1112801769684446;-3.503620881927849;2.1388753143194026;0.9669703877406137;0.21158096911484728;-0.14192416314612652;-0.007700302361684148;-0.9956514046580063;-2.1209251608351383;-2.112525457309;0.4416036277662493;-0.2746545502975905;-0.07794628906519625;-2.793177426656993;4.363327329667614;-3.0402345049495842;-0.5373326903651466;-0.39131752357901467;0.0;8.524681248034186;533.5193775298143;541.7359399821268;485.8447786565027;461.82520534209493;-0.068566988664088;0.04155109955047232;0.40390405950999897;8.71291689613021;-53.26982130408913;0.0;5.307078990030529;-65.45038553935561;0.0;2.7293095630231634;-51.971509620684394;0.0;6.4749779276959405;-45.649120255804355;0.0;543.5774893783072;543.5774893783072;-119.89903879808924;497.7380428823201;497.7380428823201;-459.3502710108629;441.7706301506175;441.7706301506175;414.2102599017401;0.5700000000000001
500.9109875911742;500.9109875911742;660.255207878797;0;0;0;0;1.3278979412580159;-1.5960191264316883;1.8160413396516117;2.087632921433295;-3.536576052722513;2.1121318309828636;0.9663529059724633;0.2079278307662725;-0.1500746882968715;-0.020141157960886016;-1.045843273616903;-2.1309926945665336;-1.8038783027212184;0.43909649878817464;-0.28553872868377966;-0.10580991699444262;-2.7778285678925885;4.413546041595209;-3.0217624356205732;-0.5416997262858476;-0.3884224823084498;0.0;8.56013372818047;538.9773124154491;540.0287704890877;481.6214847543089;466.5131403201014;-0.06326706124926135;0.05004938185699847;0.3825162300191666;8.61446453678879;-53.650484552331875;0.0;5.252734010819841;-65.41489835046342;0.0;2.7619442731644614;-51.810344039404285;0.0;6.547379605537982;-45.89654535749919;0.0;542.2972429551189;542.2972429551189;-125.9166437732157;493.27560668469044;493.27560668469044;-439.3836412964763;445.9889408715722;445.9889408715722;415.828885818308;0.58
507.22836214221815;507.22836214221815;621.8765118326481;0;0;0;0;1.3486484455846952;-1.6315463978937863;1.8370298963984724;2.062187557823668;-3.568710529645461;2.0855552391222556;0.9655977949443985;0.20376350744750868;-0.15852488547338292;-0.031163955410953657;-1.0943265267650755;-2.13109619052;-1.509870406593904;0.43561046354946953;-0.2978257882559842;-0.13090693284249877;-2.760488840403577;4.463051763021242;-3.0033457353982986;-0.5460043815763006;-0.3852880184303968;0.0;8.594746765043181;543.8660164498845;538.1118269427083;477.88279363498714;471.3455379412083;-0.05762505244554503;0.05764262888416683;0.3605063621934443;8.495828951168626;-54.01686109540854;0.0;5.18222183133653;-65.37304419033931;0.0;2.8247673489132277;-51.65641590890725;0.0;6.633722813518467;-46.15011132819556;0.0;540.9277478902591;540.9277478902591;-134.69873425856883;489.0654647944673;489.0654647944673;-414.583259107352;450.2487403876876;450.2487403876876;419.8774754159331;0.59
513.129547384163;513.129547384163;580.8260089255916;0;0;0;0;1.369135559722775;-1.6673905230777573;1.857753452262659;2.0349589275381152;-3.59993335949408;2.0591299673614927;0.9647451987004032;0.19910282857464512;-0.16720472447128107;-0.04083314037126098;-1.140969978171091;-2.121643818579716;-1.2320802324859255;0.43115152134611295;-0.31136671822523015;-0.15331194699607317;-2.7411657590511105;4.511745467299257;-2.9849688265106096;-0.55023689779398;-0.3819143536114417;0.0;8.628492765216391;548.1915086643102;535.981149242302;474.6524951616647;476.3147385182559;-0.0516420531924435;0.06431219285223189;0.33806456699896564;8.360387161003988;-54.36748070821001;0.0;5.097972418041446;-65.32357820385974;0.0;2.9153473577695466;-51.51228621257923;0.0;6.730693004058988;-46.41077130950124;0.0;539.4463139935483;539.4463139935483;-145.71351868855493;485.1507777627111;485.1507777627111;-385.5248820768953;454.5678005587416;454.5678005587416;425.6762928071456;0.6
518.594691037765;518.594691037765;537.8386224828387;0;0;0;0;1.3893415630117794;-1.7035419570322539;1.87821343332655;2.005970731242909;-3.6301600077373912;2.0328383507908345;0.9638275368059405;0.19396353312016257;-0.176045105137201;-0.049221418827279866;-1.1855943506620503;-2.103132838363865;-0.9718425792919021;0.4257201659950072;-0.3260038452577808;-0.17311017924043715;-2.7198761933371154;4.559534450103982;-2.966613866597826;-0.5543878805186753;-0.37830268401641515;0.0;8.661351781310362;551.960878583857;533.6439293305062;471.950389007847;481.40107548167094;-0.045339664900115956;0.07004471374105649;0.31537912917977895;8.210867305092002;-54.70114258367093;0.0;5.003044829605899;-65.26555435722932;0.0;3.031429377836213;-51.380282325030585;0.0;6.834405415148874;-46.67910405873054;0.0;537.8366468079658;537.8366468079658;-158.33226291450876;481.56937354948894;481.56937354948894;-352.73277742443906;458.95612612615685;458.95612612615685;432.45923624503473;0.61
