mot0_state_s;mot0_vel_s;mot0_vel_ds;stp_setpoint_x_cons;stp_setpoint_y_cons;stp_setpoint_z_cons;stp_setpoint_psi_cons;sys_state_px;sys_state_py;sys_state_pz;sys_state_vx;sys_state_vy;sys_state_vz;sys_state_qr;sys_state_qx;sys_state_qy;sys_state_qz;sys_state_wx;sys_state_wy;sys_state_wz;sys_euler_roll;sys_euler_pitch;sys_euler_yaw;ctlvtol_command_fx;ctlvtol_command_fy;ctlvtol_command_fz;ctlvtol_att_roll;ctlvtol_att_pitch;ctlvtol_att_yaw;ctlvtol_att_A;ctlatt_command_s0;ctlatt_command_s1;ctlatt_command_s2;ctlatt_command_s3;ctlatt_command_Gr;ctlatt_command_Gp;ctlatt_command_Gy;ctlmot0_command_u;ctlmot0_integral_int;ctlmot0_integral_corr;ctlmot1_command_u;ctlmot1_integral_int;ctlmot1_integral_corr;ctlmot2_command_u;ctlmot2_integral_int;ctlmot2_integral_corr;ctlmot3_command_u;ctlmot3_integral_int;ctlmot3_integral_corr;mot1_state_s;mot1_vel_s;mot1_vel_ds;mot2_state_s;mot2_vel_s;mot2_vel_ds;mot3_state_s;mot3_vel_s;mot3_vel_ds;t
0.0;0.0;2265.144863915715;0;0;0;0;0.0;0.0;0.0;2.349619;-2.409138;4.907362;1.0;0.0;0.0;0.0;1.0;-0.5;1.5;0.0;-0.0;0.0;-2.4580509617162685;2.520316688708768;-5.133830584273395;-0.4451396531945795;-0.48396019073636176;0.0;5.853253039665645;421.9998579465421;479.3792496480107;414.07342879507553;355.14204865143216;-0.08864519468320431;0.005666149700236465;-0.1853;12.0;0.0;-0.0;12.0;0.0;-0.0;12.0;0.0;-0.0;12.0;0.0;-0.0;0.0;0.0;2265.144863915715;0.0;0.0;2265.144863915715;0.0;0.0;2265.144863915715;0.0
22.555862500047027;22.555862500047027;2245.6651308294845;0;0;0;0;0.023496189649305714;-0.02409138070456606;0.048583331058333484;2.349618894892548;-2.409138211479045;4.809304211222639;0.9999559029695785;0.004996095998129693;-0.002522645393788542;0.00754104775804019;0.9984363632494708;-0.5090861070432736;1.5164596176287184;0.00995399945703495;-0.005120442277676561;0.015056989993844331;-2.4685586672118545;2.5310909029327524;-5.05297467803595;-0.44122027278693143;-0.4786759262590438;0.0;5.927013832123465;425.6254496559892;481.6329535075068;415.5405753196219;358.55243100961087;-0.08841593998385038;0.00725301087750503;-0.19427548210777623;12.0;-4.030695871559422;-0.0;12.0;-4.816329535075068;-0.0;12.0;-4.155405753196219;-0.0;12.0;-3.5855243100961087;-0.0;22.555862500047027;22.555862500047027;2245.6651308294845;22.555862500047027;22.555862500047027;2245.6651308294845;22.555862500047027;22.555862500047027;2245.6651308294845;0.01
44.90618884258332;44.90618884258332;2224.0515149278963;0;0;0;0;0.0469923688830484;-0.04818278249617134;0.09618734275007956;2.3496167115309974;-2.409142641113139;4.71149811782389;0.9998208182731324;0.009983616994373716;-0.005089825692546171;0.015256225410387394;0.9968085549857758;-0.5175860800841061;1.5700240019906382;0.019810737360046543;-0.010482643981407793;0.030411712049641965;-2.479064193886548;2.541869539404747;-4.9719441176672055;-0.43737680348900587;-0.47352559023987295;0.0;6.001136955056018;429.3573217234521;483.8574526094009;416.78943749271366;362.09908640077356;-0.08806695459274314;0.00909230470779702;-0.20800649895224152;12.0;-7.875207200368109;-0.0;12.0;-9.429345436168607;-0.0;12.0;-8.097741503122885;-0.0;12.0;-6.980956549103373;-0.0;44.90618884258332;44.90618884258332;2224.0515149278963;44.90618884258332;44.90618884258332;2224.0515149278963;44.90618884258332;44.90618884258332;2224.0515149278963;0.02
67.03006878688699;67.03006878688699;2200.3909207604265;0;0;0;0;0.07048848575104948;-0.07227431167435566;0.14281619603898832;2.349605958044223;-2.4091646740144643;4.614272493681263;0.9995862672297354;0.014960581864690925;-0.007701752081450434;0.023327202379822238;0.9950776419648669;-0.5257515697978148;1.6595667221704786;0.029557595531004708;-0.016095803264261188;0.04642734592250604;-2.4895607270447098;2.552666648481625;-4.891084710385178;-0.4336310814821707;-0.46853150408373356;0.0;6.075339271046538;433.20341196486;486.01424205160913;417.78961487828434;365.8074050579135;-0.08754754192893532;0.011215063931362667;-0.22653473638783095;12.0;-11.53694063214784;-0.0;12.0;-13.840425968258863;-0.0;12.0;-11.826575763479894;-0.0;12.0;-10.189968711256675;-0.0;67.03006878688699;67.03006878688699;2200.3909207604265;67.03006878688699;67.03006878688699;2200.3909207604265;67.03006878688699;67.03006878688699;2200.3909207604265;0.03
88.9074955221466;88.9074955221466;2174.777005709485;0;0;0;0;0.09398440086178383;-0.0963662570690496;0.1884772856830895;2.3495756624243676;-2.409227423828368;4.517945303344467;0.9992378048643614;0.019923815194120856;-0.010361565948166953;0.03192943577741615;0.9932034292295472;-0.5338276665644791;1.7838393863132787;0.03917506182969731;-0.021981419312542407;0.06345520994801361;-2.5000367259963343;2.563506539643069;-4.810732401439965;-0.4300044306162678;-0.4637120846414212;0.0;6.1493435366822276;437.1664212356954;488.0627920065908;418.5165543697928;369.7050796530435;-0.08680254378210468;0.013644409406164801;-0.2498799130233387;12.0;-15.019529889283328;-0.0;12.0;-18.0507532004559;-0.0;12.0;-15.341440619308953;-0.0;12.0;-13.216718819918242;-0.0;88.9074955221466;88.9074955221466;2174.777005709485;88.9074955221466;88.9074955221466;2174.777005709485;88.9074955221466;88.9074955221466;2174.777005709485;0.04
110.519429414285;110.519429414285;2147.309418031545;0;0;0;0;0.11747984466385102;-0.12045918560468317;0.233181125720814;2.3495107939656608;-2.4093633873252007;4.422822418668455;0.9987544979561768;0.02486895021824265;-0.013075171661119243;0.04123139596690508;0.9911446075240925;-0.5420517159015882;1.9414831593655162;0.048636200829707474;-0.02817226254563777;0.08183349448177953;-2.5104763458404333;2.5744234628808225;-4.731211880308857;-0.42651758897326403;-0.4590821854049077;0.0;6.222880073886329;441.242525916977;489.95987077528247;418.9529996587263;373.8228876546709;-0.08577114070848485;0.016393214895139736;-0.2780416674151076;12.0;-18.326760854310248;-0.0;12.0;-22.06127695298726;-0.0;12.0;-18.64189566067475;-0.0;12.0;-16.065872741243485;-0.0;110.519429414285;110.519429414285;2147.309418031545;110.519429414285;110.519429414285;2147.309418031545;110.519429414285;110.519429414285;2147.309418031545;0.05
131.8478539806033;131.8478539806033;2118.093006094963;0;0;0;0;0.14097437923527828;-0.1445540341892179;0.2769412227139819;2.349392743660452;-2.4096140553349485;4.329196453656809;0.9981081863188733;0.029790426380547574;-0.015851043563631196;0.051393806214935625;0.988858735744906;-0.5506521217972649;2.13104085467522;0.05790606297158326;-0.03471116944664027;0.10188619115621464;-2.520859922942398;2.58546124277247;-4.652835305081756;-0.4231906613512878;-0.45465344980011324;0.0;6.295688388054709;445.4200233743168;491.65886821194545;419.090640039388;378.19534937377614;-0.08438569594499125;0.01946153791930085;-0.3110018924520837;12.0;-21.46248254824738;-0.0;12.0;-25.872671340963862;-0.0;12.0;-21.72760776692578;-0.0;12.0;-18.742631940838393;-0.0;131.8478539806033;131.8478539806033;2118.093006094963;131.8478539806033;131.8478539806033;2118.093006094963;131.8478539806033;131.8478539806033;2118.093006094963;0.06
152.87582385559702;152.87582385559702;2087.237009078932;0;0;0;0;0.16446736516184643;-0.1686521975367582;0.3197739379619036;2.3491998618313517;-2.410029488946902;4.237345723917341;0.9972625732745518;0.034681477461772615;-0.01870000606748807;0.0625688807632339;0.9863020804903576;-0.5598471468182066;2.3509694380657167;0.06694099493186749;-0.041649635302879545;0.12392224126307379;-2.5311645225647244;2.59667287439872;-4.575901152277223;-0.420043095172795;-0.4504346679629794;0.0;6.367518716475149;449.67790930905596;493.10917749966126;418.9319987916022;382.86116145514814;-0.08257076314598434;0.02283380314522623;-0.34872755643951836;12.0;-24.430503402781973;-0.0;12.0;-29.485284576154445;-0.0;12.0;-24.59844921503577;-0.0;12.0;-21.252765015583844;-0.0;152.87582385559702;152.87582385559702;2087.237009078932;152.87582385559702;152.87582385559702;2087.237009078932;152.87582385559702;152.87582385559702;2087.237009078932;0.07
173.5875046132544;173.5875046132544;2054.854239230114;0;0;0;0;0.18795793406552466;-0.19275561161699656;0.361698339955306;2.3489080507155613;-2.410667868953308;4.1475333352276476;0.9961721939943216;0.03953410747353751;-0.021634985995636707;0.07489954365534732;0.9834293372572599;-0.5698437167888889;2.599652784273364;0.07568782957925953;-0.04904617743980309;0.1482349290628129;-2.541364546512707;2.608120089314174;-4.5006931973618824;-0.41709367685583815;-0.44643213016485483;0.0;6.438133493730563;453.98437548744425;494.2556901095189;418.49260701954574;387.86331102307145;-0.08024238198851767;0.02647571715348604;-0.3911740378736009;12.0;-27.23447211152387;-0.0;12.0;-32.89908323869366;-0.0;12.0;-27.254617046675257;-0.0;12.0;-23.602639887258587;-0.0;173.5875046132544;173.5875046132544;2054.854239230114;173.5875046132544;173.5875046132544;2054.854239230114;173.5875046132544;173.5875046132544;2054.854239230114;0.08
193.96820441052506;193.96820441052506;2021.060265427576;0;0;0;0;0.21144496731935236;-0.21686683249882327;0.40273604837457905;2.3484914093540006;-2.411595025360386;4.060006403875914;0.9947813121729057;0.044339052802634504;-0.024670736523748085;0.0885186088203688;0.9801932596645426;-0.5808362361325026;2.875414529812059;0.08408295046849341;-0.05696444061545256;0.17510154747435505;-2.551432398265394;2.6198728986058026;-4.427479629344816;-0.41436054539476447;-0.4426499717235724;0.0;6.507308723910792;458.2952114102485;495.03845479514507;417.8035013298509;393.2487863257268;-0.07730778653130808;0.030330898491759812;-0.43828898127967336;12.0;-29.877742181521104;-0.0;12.0;-36.113592740512566;-0.0;12.0;-29.69677701384122;-0.0;12.0;-25.79925270438331;-0.0;193.96820441052506;193.96820441052506;2021.060265427576;193.96820441052506;193.96820441052506;2021.060265427576;193.96820441052506;193.96820441052506;2021.060265427576;0.09
214.00439751174764;214.00439751174764;1985.972607300596;0;0;0;0;0.2349270814577966;-0.2409891104171123;0.44291107095484794;2.347922927991333;-2.4128839524689707;3.9749954097221076;0.9930227965171848;0.0490857304035495;-0.027823532200460112;0.10354790062492958;0.976544224255845;-0.5930054179397648;3.1765308731414863;0.092051242944672;-0.06547101523445303;0.20478336399694144;-2.561339202896617;2.6320091187188424;-4.356512301027202;-0.41186121974349393;-0.43909050575655;0.0;6.574835252396964;462.55209183588585;495.3925476024558;416.91406109303676;399.06781588505334;-0.07366564963579089;0.0343172233425889;-0.4900166509978084;12.0;-32.36321912476249;-0.0;12.0;-39.12783617243188;-0.0;12.0;-31.92623558066634;-0.0;12.0;-27.850248819128595;-0.0;214.00439751174764;214.00439751174764;1985.972607300596;214.00439751174764;214.00439751174764;1985.972607300596;214.00439751174764;214.00439751174764;1985.972607300596;0.1
233.68373984315164;233.68373984315164;1949.709948498628;0;0;0;0;0.2584026207639475;-0.2651264589394745;0.48224963454192243;2.3471752292671653;-2.41461431356782;3.8927136813527397;0.990817028903271;0.053762173125544696;-0.03111083459921763;0.12009729366915115;0.9724297589552802;-0.6065171307837968;3.501243182157469;0.09950496122997637;-0.07463293828649468;0.2375259132295445;-2.5710555791561194;2.6446138842246363;-4.288026114843524;-0.4096126365452797;-0.43575454147966125;0.0;6.640519932662926;466.6807309127114;495.2481974377048;415.8951602146193;405.3725896628485;-0.06920698372610859;0.03832291286956328;-0.5463027139827136;12.0;-34.69318903545808;-0.0;12.0;-41.94027417169145;-0.0;12.0;-33.945143207695054;-0.0;12.0;-29.7639307406396;-0.0;233.68373984315164;233.68373984315164;1949.709948498628;233.68373984315164;233.68373984315164;1949.709948498628;233.68373984315164;233.68373984315164;1949.709948498628;0.11
252.99507680882138;252.99507680882138;1912.3913769513938;0;0;0;0;0.28186965748904524;-0.2892837191423132;0.5207800116499002;2.346221353762479;-2.416871937690883;3.8133570113108437;0.9880708959294765;0.05835495448964743;-0.03455092819779541;0.13826365127648155;0.9677940631589002;-0.6215212624904654;3.847770280131718;0.10634255808474738;-0.08451484692423798;0.27355963807619743;-2.580552461366149;2.6577791500542873;-4.222238542769112;-0.4076311947717141;-0.4326416869228249;0.0;6.7041866858882475;470.588880168258;494.53121257008877;414.842544912235;412.21544148859203;-0.06381681525376838;0.04220242129378587;-0.6070993168116686;12.0;-36.869127069052446;-0.0;12.0;-44.54874889896082;-0.0;12.0;-35.756731258385884;-0.0;12.0;-31.549247757094005;-0.0;252.99507680882138;252.99507680882138;1912.3913769513938;252.99507680882138;252.99507680882138;1912.3913769513938;252.99507680882138;252.99507680882138;1912.3913769513938;0.12
271.9284436736913;271.9284436736913;1874.1356591043605;0;0;0;0;0.3053260001377288;-0.3134666187214275;0.5585323438050476;2.345035587930276;-2.4197483091490795;3.7371033982021507;0.9846769150772913;0.06284910636658317;-0.038162526132785854;0.15812964409609098;0.9625775467892369;-0.6381505997221566;4.214320293914121;0.11244754072356579;-0.09517575598499206;0.3131008934379764;-2.5898019692653333;2.671603183908035;-4.159349277521816;-0.40593280388657077;-0.4297506359227028;0.0;6.765677453124807;474.1641394411266;493.16376008338784;413.8802571863356;419.64649952654884;-0.057376749788968125;0.04577222308603595;-0.6723702317130905;12.0;-38.8914840267268;-0.0;12.0;-46.950435731706484;-0.0;12.0;-37.36558306216103;-0.0;12.0;-33.21576198427128;-0.0;271.9284436736913;271.9284436736913;1874.1356591043605;271.9284436736913;271.9284436736913;1874.1356591043605;271.9284436736913;271.9284436736913;1874.1356591043605;0.13
290.47505888444414;290.47505888444414;1835.0605541957539;0;0;0;0;0.32876921023564243;-0.33768182596002805;0.5955384629238198;2.343594333035965;-2.4233400486201355;3.6641129115374316;0.9805125458676034;0.0672280340199238;-0.0419643455806541;0.17976243361179609;0.9567164144836967;-0.6565197215040326;4.599101962067119;0.1176874338924302;-0.10666543420806963;0.3563533123588098;-2.598778324548276;2.686190047533273;-4.099540011284817;-0.40453293220574765;-0.42707944007304943;0.0;6.82485304122556;477.27153588885994;491.0655662058001;413.16379745874116;427.7108369567455;-0.04976854987467974;0.04880664510050202;-0.7420957280276896;12.0;-40.75944879677096;-0.0;12.0;-49.141806957027576;-0.0;12.0;-38.77793660001153;-0.0;12.0;-34.773585917101826;-0.0;290.47505888444414;290.47505888444414;1835.0605541957539;290.47505888444414;290.47505888444414;1835.0605541957539;290.47505888444414;290.47505888444414;1835.0605541957539;0.14
308.62731075506724;308.62731075506724;1795.2821736806236;0;0;0;0;0.3521966279855827;-0.3619369984542336;0.6318317119280229;2.341877014385423;-2.427748382413203;3.5945276744985337;0.9754397352978577;0.07147343384513083;-0.0459746527226765;0.20321221017316288;0.9501423194970574;-0.6767239048230281;5.000335315220306;0.12191294909716771;-0.11902036013718978;0.4035095133982868;-2.607458813527127;2.7016490632871015;-4.042974337454003;-0.4034466521562646;-0.42462576697466203;0.0;6.881593864640987;479.7508070583151;488.1556352845326;412.8825558716827;436.4451731756702;-0.04087886248630763;0.05103395130012565;-0.8162766773323074;12.0;-42.470683759803435;-0.0;12.0;-51.118612721028455;-0.0;12.0;-40.00201156988391;-0.0;12.0;-36.233287060014085;-0.0;308.62731075506724;308.62731075506724;1795.2821736806236;308.62731075506724;308.62731075506724;1795.2821736806236;308.62731075506724;308.62731075506724;1795.2821736806236;0.15
326.3787379899883;326.3787379899883;1754.9143899289843;0;0;0;0;0.37560540721426405;-0.38624082645019464;0.667446765750012;2.3398670307180622;-2.4330785940556985;3.5284719594398335;0.9693047454491608;0.07556521983516486;-0.050210777605678596;0.22851058140321615;0.942782109941853;-0.69883804121063;5.41626165591715;0.12495747921828108;-0.1322592485534095;0.4547530974422494;-2.6158247959666125;2.7180942597955364;-3.989797770497776;-0.4026886791234778;-0.4223871466386675;0.0;6.93580058541405;481.41330237179335;484.35463490203597;413.260844956601;445.87418133884614;-0.030605260885356096;0.05213297667596251;-0.8949372235664259;12.0;-44.02102940362149;-0.0;12.0;-52.875885962498145;-0.0;12.0;-41.04834691189925;-0.0;12.0;-37.605755765851875;-0.0;326.3787379899883;326.3787379899883;1754.9143899289843;326.3787379899883;326.3787379899883;1754.9143899289843;326.3787379899883;326.3787379899883;1754.9143899289843;0.16
343.7240045541009;343.7240045541009;1714.0682973508992;0;0;0;0;0.39899256001277844;-0.4106030705746068;0.7024194538285453;2.3375527440400425;-2.4394394495173914;3.4660523908843404;0.9619383093892402;0.07948146532184457;-0.054688599756952644;0.25566881439919187;0.9345576877321712;-0.7229155647748136;5.845152780200521;0.12663706211212716;-0.1463781528011831;0.5102608401812163;-2.6238627605606286;2.735643787526016;-3.940137878938913;-0.4022734005016503;-0.4203612082636505;0.0;6.987394653141777;482.03839811532487;479.5881714299444;414.5566587119086;456.0064470977991;-0.018863808895549714;0.05173074384880159;-0.9781251494788523;12.0;-45.40417333923373;-0.0;12.0;-54.407980296897705;-0.0;12.0;-41.930126119118455;-0.0;12.0;-38.902032856929985;-0.0;343.7240045541009;343.7240045541009;1714.0682973508992;343.7240045541009;343.7240045541009;1714.0682973508992;343.7240045541009;343.7240045541009;1714.0682973508992;0.17
360.6588694257407;360.6588694257407;1672.851728151469;0;0;0;0;0.42235501147698024;-0.43503459363766983;0.736786585144823;2.3349285101745303;-2.4469425841477803;3.40735825106681;0.9531561592469233;0.08319836686830064;-0.059422006185120516;0.2846759438748535;0.9253859980935268;-0.7489873944181911;6.285319397807992;0.12675098783803926;-0.16134516900473495;0.5702049312513271;-2.6315654275217404;2.7544192916554207;-3.894104526751843;-0.4022148914223806;-0.4185459098263513;0.0;7.036318745194057;481.3693105090639;473.79129182892274;417.05711295423174;466.83009575223656;-0.005598411675509904;0.04940170987728611;-1.0659088604708729;12.0;-46.61127775006696;-0.0;12.0;-55.70865316964592;-0.0;11.375889494406888;-42.66345720311976;0.0;12.0;-40.13309376891134;-0.0;360.6588694257407;360.6588694257407;1672.851728151469;359.4950723430304;359.4950723430304;1557.9180882510166;360.6588694257407;360.6588694257407;1672.851728151469;0.18
377.18015178612086;377.18015178612086;1631.3688240105448;0;0;0;0;0.4456896880541718;-0.45954731769984986;0.7705854365639329;2.332000401852744;-2.455688019988393;3.3523938911615914;0.942784649744901;0.08669464944724108;-0.06441428163531897;0.31542343331466655;0.9152086173344651;-0.7763076763960877;6.703959690710741;0.12511053287945395;-0.17707253239908843;0.6345983521910409;-2.6389377752955223;2.774530741824222;-3.851718936633002;-0.4025213176960893;-0.41693601751206166;0.0;7.082593215008689;479.2200964724018;467.23948403826085;421.0287568291257;477.9215584759529;0.008632319923040668;0.04479061720197786;-1.1543344602494747;12.0;-47.63167719692977;-0.0;12.0;-56.774459315771125;-0.0;10.188765843157837;-43.27879404798072;0.0;12.0;-41.30572065941346;-0.0;377.18015178612086;377.18015178612086;1631.3688240105448;372.66886716189873;372.66886716189873;1300.9285660266341;377.18015178612086;377.18015178612086;1631.3688240105448;0.19
393.2856922073716;393.2856922073716;1589.719664130318;0;0;0;0;0.46899364281483014;-0.48415408451877556;0.8038528973104136;2.328787841975513;-2.465759410052759;3.301077531829314;0.9307302368097492;0.08996275380056966;-0.06963967283032887;0.3475604194737552;0.9040605608191982;-0.8031541879860489;7.036041854837853;0.1216147145210973;-0.19336929965237204;0.7029734722702673;-2.645998805218301;2.796071394535915;-3.812912052592104;-0.4031943793289471;-0.41552346067591944;0.0;7.1263166341037465;475.7806042785675;460.73325349364114;426.3737383071487;488.3357554564684;0.02239816070095536;0.03810958897966439;-1.234970591385128;12.0;-48.456626317641735;-0.0;12.0;-57.60999033284633;-0.0;9.412194728539337;-43.81584275943322;0.0;12.0;-42.417276696116936;-0.0;393.2856922073716;393.2856922073716;1589.719664130318;384.06658857431495;384.06658857431495;1125.2271204789545;393.2856922073716;393.2856922073716;1589.719664130318;0.2
408.97431040178463;408.97431040178463;1547.9999493105736;0;0;0;0;0.49226415788113026;-0.5088685897328018;0.8366251549016772;2.3253173321527627;-2.477243750724395;3.253350657266937;0.9170365061341093;0.09301630848598318;-0.07503672268214372;0.38047536454034764;0.892104264640276;-0.8278634927680386;7.23398148508105;0.11630957955291159;-0.2099424928788956;0.7742960835121966;-2.6527750264440533;2.8191383858233716;-3.777638841945167;-0.40423798016434087;-0.4143035456907756;0.0;7.167575442264748;471.6530682855485;455.14426151189224;432.4954030192906;497.20847936864556;0.03425127705938823;0.030270713427752376;-1.3010467283315752;10.808302907931797;-49.08341389647937;0.0;11.508590372145623;-58.228576025891535;0.0;8.899364305481235;-44.30013090388297;0.0;12.0;-43.456504567729674;-0.0;408.05898968235573;408.05898968235573;1457.7056432722595;394.2184736927363;394.2184736927363;1001.9884588433947;408.97431040178463;408.97431040178463;1547.9999493105736;0.21
422.02681566531675;422.02681566531675;1287.479130872064;0;0;0;0;0.5154988944266986;-0.5337051517572408;0.868936820987377;2.3216381682689433;-2.4901780529038047;3.208956792339183;0.9019476952774549;0.09590210098443938;-0.08050845768804225;0.413293515859071;0.8800810724151785;-0.8502175136199271;7.220793426844383;0.1094569638875819;-0.22643018430218473;0.8468851309754197;-2.6593169638453458;2.8437768379835977;-3.7456464723522793;-0.40563903089266645;-0.4132630232958003;0.0;7.206623143105305;468.2064838053961;451.8559136435607;438.12036177678016;503.23673072039674;0.04195779158602917;0.023314020363266474;-1.3413721178394402;9.114070526404236;-49.54521057788016;0.0;9.648094411883644;-58.666545265503586;0.0;8.461369446359601;-44.73914978472341;0.0;12.0;-44.399128770915794;-0.0;418.97565743896195;418.97565743896195;1076.8617457583953;403.29123898488467;403.29123898488467;895.2842839739651;424.24576008786124;424.24576008786124;1506.3007410053078;0.22
431.5707355105678;431.5707355105678;941.164442748401;0;0;0;0;0.5386961352884361;-0.558678085778782;0.9008186718420905;2.317825143713388;-2.5045240916103046;3.1673854327389916;0.8859370888280018;0.09870944775785549;-0.08593040911687078;0.4449582950696766;0.8701369253979989;-0.8706246472708019;6.970701102280626;0.10157041952781522;-0.242469942793539;0.9185004086284242;-2.6657020944936782;2.869953163947237;-3.716414643943085;-0.40736119912750024;-0.4123771765236337;0.0;7.2439202999059855;466.807066122094;451.73406881365287;441.97644842988865;505.7344547735449;0.044206637694523876;0.01929363589267025;-1.3507907019907137;7.994300255421264;-49.89757388399543;0.0;8.516190851509862;-58.994129379250495;0.0;7.946399770589425;-45.12600187917345;0.0;12.0;-45.21401571777263;-0.0;427.48986736639387;427.48986736639387;839.6932338880563;411.16596873803434;411.16596873803434;776.9155910989168;439.1006815151159;439.1006815151159;1464.7082536917346;0.23
438.76707660479076;438.76707660479076;709.5292911696808;0;0;0;0;0.5618548968115207;-0.583801396081297;0.9322970418486409;2.3139499227682028;-2.5202582185725704;3.1282586332176128;0.8696927347482742;0.10156904967389907;-0.09115943851697178;0.4743503262818325;0.8639009717998491;-0.8886761007755456;6.447104168711741;0.09340176528859999;-0.25776499634723055;0.9865310407613487;-2.6720049499838323;2.8976488870111288;-3.6895597468649757;-0.40937775335536863;-0.4116301816979631;0.0;7.279819257188358;468.637934523344;455.62022409693947;443.0370445988007;503.9014482166972;0.03960948317697217;0.019955435623283686;-1.3224905252366448;7.456112951161477;-50.19628246318096;0.0;8.054004551368234;-59.27543294655595;0.0;7.257687827228722;-45.444712637781116;0.0;10.75427263294715;-45.86202338478844;0.0;434.91029271210425;434.91029271210425;731.6896158063403;417.54805909520076;417.54805909520076;629.5526126625928;451.22257313420135;451.22257313420135;1194.8688482648804;0.24
444.76090534830666;444.76090534830666;590.8791670206497;0;0;0;0;0.5849749436772709;-0.6090887196379358;0.9633942979886696;2.310090120860048;-2.5373304827673353;3.091160771797647;0.8540533876955663;0.10463499403802318;-0.09604510174471662;0.5004194914461654;0.8612037319295724;-0.9030206244011542;5.677808197435296;0.08586322854681434;-0.2721241943209636;1.0482638376696445;-2.678306622359078;2.9268178496149004;-3.6646569815273073;-0.41165676892337405;-0.41100538516598367;0.0;7.31469957707683;473.4730154062105;463.2884542117997;441.5196866111626;497.8566755029644;0.028407441294053905;0.024997688567998968;-1.258052803806862;7.35902851099193;-50.48340356375999;0.0;8.104452437883172;-59.559214561552906;0.0;6.448122844121786;-45.68442891294073;0.0;8.885179834163534;-46.32836440847608;0.0;442.2186582209993;442.2186582209993;720.517506171239;422.25066370031067;422.25066370031067;463.825582965133;459.52208318359635;459.52208318359635;817.9111773963045;0.25
450.405088309174;450.405088309174;556.3364882243791;0;0;0;0;0.6080568151637389;-0.6345531243050602;0.9941287182905328;2.3063225550460786;-2.5556768998661594;3.0556896332343655;0.83985003482648;0.10804941294218624;-0.10045359793321618;0.5223852199546645;0.860641148644474;-0.9117573289034959;4.723785712621082;0.0798529995108604;-0.28548072082984033;1.1013933564238163;-2.6846877148596215;2.957398958756857;-3.6412937451404552;-0.41416545289489715;-0.4104874183415878;0.0;7.3489246550987035;479.9240178705397;473.9019444028018;438.7212747752294;488.2134173855882;0.011772741245607274;0.03236235362025282;-1.1638272446853228;7.469206266520155;-50.77859285937365;0.0;8.479047146346854;-59.876047423370935;0.0;5.673979585520571;-45.84913502368992;0.0;7.0241862838795175;-46.615277750496;0.0;450.01883151474783;450.01883151474783;768.8679933228306;425.38416810687187;425.38416810687187;309.03653711072184;464.1205263145828;464.1205263145828;453.11240522772687;0.26
456.0936882135244;456.0936882135244;560.6409673016674;0;0;0;0;0.6311017819799315;-0.6602070546635235;1.024514915212226;2.3027162096399643;-2.575236803084944;3.021514329365848;0.8277996110905328;0.11192171945346513;-0.1042753461962734;0.5397666021240959;0.8603430172011839;-0.9129896043576686;3.6435514157975426;0.07615205942041553;-0.29784565123561074;1.144198994569245;-2.69122096361679;2.9893343133428636;-3.6191304143598657;-0.41687550281900687;-0.4100646497284494;0.0;7.38279460220475;486.24022438039344;486.600072987036;436.394337385878;475.5752612312881;-0.009069670655092612;0.03932105507809568;-1.0463747119290152;7.561089655121376;-51.08005822104234;0.0;9.025250221380713;-60.241859838093816;0.0;5.109591454715282;-45.95923671647998;0.0;5.2225830093452;-46.72982509966305;0.0;458.61341303679995;458.61341303679995;847.0100035874635;427.3813534484822;427.3813534484822;196.9581848587162;465.23439035121527;465.23439035121527;109.74999332238929;0.27
461.7899350394897;461.7899350394897;561.3206453254411;0;0;0;0;0.6541117567904517;-0.6860623596938095;1.0545644883845389;2.299330025765602;-2.595951766927872;2.9883632264481355;0.8184513072027507;0.11632018571063786;-0.10742404712167825;0.5523288388581147;0.8581889762943871;-0.905364056262969;2.49221647542299;0.07538177360965666;-0.30924201026007436;1.1755333215659722;-2.6979688851828314;3.022568090639117;-3.597888007398525;-0.4197623016930645;-0.40972797485074686;0.0;7.416555088219028;490.766069925968;500.5571212972889;436.307753221348;460.56143785562966;-0.032866707563725096;0.0431662822884391;-0.9122958854735566;7.463007577772318;-51.36981956990713;0.0;9.624882151536246;-60.6612969206987;0.0;4.8982775521562685;-46.048500714208636;0.0;3.5236493406666503;-46.683095574707195;0.0;468.07568096008976;468.07568096008976;932.3239397039827;428.9304034271449;428.9304034271449;152.75802495975984;463.15577173964846;463.15577173964846;-204.8129347734597;0.28
467.1388003468993;467.1388003468993;527.022261073254;0;0;0;0;0.6770891829886446;-0.7121303131375182;1.0842865735115388;2.2962107931612805;-2.6177652593600302;2.956015228870154;0.8121538910326037;0.12126820179933068;-0.10983728876796775;0.5600320084683222;0.8519867760986591;-0.8885252794230483;1.3207391590901416;0.0779770659402559;-0.31965358476823635;1.1947987146424939;-2.704981521302332;3.0570461914989098;-3.577339310972045;-0.42280442399284107;-0.4094698803334412;0.0;7.450403728127725;492.2465729499641;514.983197546391;439.8123335153314;443.86984741825364;-0.05830010072334113;0.04178538888780968;-0.7681101793616816;7.078060575559995;-51.62089729593777;0.0;10.186886548370518;-61.130372086561714;0.0;5.113149514486539;-46.1573200150905;0.0;1.9713352610928472;-46.49023633149325;0.0;478.3064028688442;478.3064028688442;1007.807540987897;430.83685959495057;430.83685959495057;187.99550464088065;458.24986668080606;458.24986668080606;-483.4388961364321;0.29
471.6155759771082;471.6155759771082;441.0468481092355;0;0;0;0;0.7000369042554759;-0.7384216325108043;1.1136883107701145;2.2933914457137474;-2.6406227331339918;2.9242923778515206;0.8090450767908027;0.1267451882789231;-0.11147866440020376;0.5629868811546622;0.8396350229578888;-0.8633796788358512;0.17466560550733756;0.08417150521141802;-0.32899731764965984;1.201911633311651;-2.71229459745228;3.0927163444068855;-3.557301346910325;-0.42598328530983287;-0.4092836821764476;0.0;7.484495762352982;489.9872613096687;529.1231776506037;447.5052270717258;426.33193423551376;-0.08397161822625657;0.03405173273079391;-0.620072512440208;6.385941315709849;-51.80461414926338;0.0;10.64142655539073;-61.63853983437931;0.0;5.735601200930062;-46.32400368985825;0.0;0.6163440403048903;-46.171057007040325;0.0;489.0783858390661;489.0783858390661;1060.8659350115636;433.84938442237296;433.84938442237296;297.0466722205001;450.9643267452647;450.9643267452647;-718.0413917430009;0.3
474.67366120328495;474.67366120328495;301.25447790156727;0;0;0;0;0.7229580198976553;-0.7649464995221549;1.1427752393084811;2.2908899394624878;-2.6644718028629213;2.8930524599779566;0.809062927282574;0.13269187815580663;-0.11234039194071821;0.5614175643022271;0.819286311963205;-0.8321139826362722;-0.9079378132158231;0.0939938216798861;-0.3371214997858424;1.1972483118708275;-2.719928284372898;3.1295282998549525;-3.5376278160112724;-0.42928280576892447;-0.4091628733683047;0.0;7.518950064084763;483.900355318049;542.2857595692288;459.1146542318458;408.9152542889867;-0.1084671466643533;0.019984161365263278;-0.4738516078187859;5.43279724443816;-51.89688109041102;0.0;10.938421279585029;-62.17061357168094;0.0;6.6608077883035826;-46.57665638795298;0.0;-0.48453500694807916;-45.75056628247754;0.0;500.0773337442071;500.0773337442071;1082.94443731286;438.5004695742776;438.5004695742776;458.5715138587627;441.83768046287;441.83768046287;-899.6726854375986;0.31
475.86901269475294;475.86901269475294;117.75011204868065;0;0;0;0;0.7458557318250794;-0.7917145829673666;1.1715516198471367;2.288708703215731;-2.6892625339424097;2.862182011670909;0.8119772119135551;0.1390192684961244;-0.11244492366584133;0.5556282835328653;0.7895069119888581;-0.7979727413408532;-1.8987653501299384;0.1072782025831145;-0.3438258772485563;1.1815656405552781;-2.7278865548964966;3.167434142836444;-3.51820192394702;-0.4326891028951989;-0.4091005964945123;0.0;7.5538551174493085;474.4533298880718;553.8986919842195;473.65859084805214;392.65270074934676;-0.13049661302754262;0.0006442438318480316;-0.3341229623847572;4.313135241979083;-51.88272426234421;0.0;11.04923342161796;-62.708827154081064;0.0;7.730718042929464;-46.92823760069073;0.0;-1.276771475865349;-45.25871648534231;0.0;510.94488906695807;510.94488906695807;1069.7374255607824;445.01281037188846;445.01281037188846;641.9935499224254;431.4926249020937;431.4926249020937;-1020.0137713669648;0.32
474.94692661655273;474.94692661655273;-90.83210433585316;0;0;0;0;0.7687331883954169;-0.8187350667293263;1.200020695481574;2.286834547635944;-2.7149481384734844;2.8315909537983783;0.817434900570679;0.14561984073132767;-0.11184429842025663;0.5459724335763393;0.7494098790341885;-0.7648565082971067;-2.7806033655721794;0.12369003836582136;-0.34889511926953376;1.1558989210238941;-2.736157019002557;3.2063890334069813;-3.498930884903316;-0.4361903135524782;-0.40908929488967966;0.0;7.589273960117447;462.53432382354174;563.56240012238;489.79003406463687;378.51337217370315;-0.14905232605936783;-0.02219261662478727;-0.20423753329993558;3.146755720864903;-51.7585982344141;0.0;10.967967981030098;-63.235002264635284;0.0;8.780131483523629;-47.37600983761821;0.0;-1.7210870201802693;-44.7289239580584;0.0;521.3229247858853;521.3229247858853;1021.3027739284025;453.29406343024385;453.29406343024385;816.2294786755156;420.6059398031606;420.6059398031606;-1073.6839231873369;0.33
471.8830265990032;471.8830265990032;-301.8326079301121;0;0;0;0;0.791593329158586;-0.8460166874083145;1.228184909733275;2.2852389142530405;-2.7414861703377675;2.801209412939664;0.8250105831762647;0.15237903991772325;-0.11061687429934157;0.5328246174503939;0.6987323019262245;-0.7368399885293976;-3.5468397255010156;0.1427648794421664;-0.35213521955369925;1.1214489603068134;-2.7447111148902046;3.2463524737396323;-3.4797426936650018;-0.43977658480211157;-0.4091205541784529;0.0;7.6252476059708965;449.26833715485316;571.0746049771944;506.1567361670998;367.2602839174145;-0.16351540550227875;-0.04647147539181486;-0.0861195674164809;2.055134213100368;-51.5324513399726;0.0;10.709574263400594;-63.73251906654838;0.0;9.675321427177389;-47.904636564986774;0.0;-1.8054708701990534;-44.19546739920094;0.0;530.8929316053031;530.8929316053031;941.5701303175579;463.00395378531437;463.00395378531437;956.8364728299454;409.8573300060922;409.8573300060922;-1060.3311923110882;0.34
466.8789976321841;466.8789976321841;-493.00941191946725;0;0;0;0;0.814438733420249;-0.8735677846327312;1.256046099994716;2.283878367651233;-2.7688398368245712;2.7709859914628834;0.83425214853514;0.1591849876713087;-0.10886207246003585;0.5165583621860128;0.6378380794147092;-0.717713244216927;-4.199167879974074;0.16395419493626615;-0.35340407390595097;1.0794769567097393;-2.7535045561544016;3.2872897027815875;-3.460584402371023;-0.4434401461847078;-0.4091850715742402;0.0;7.661797397620943;435.83338084195725;576.4169491071203;521.6422909691752;359.34704375988525;-0.17367290216193784;-0.07024675201008042;0.019563936696349586;1.142399417649886;-51.221995172070336;0.0;10.304425098752905;-64.18775924156655;0.0;10.332735121557928;-48.49101993682538;0.0;-1.5509308301272946;-43.690364536738876;0.0;539.403949470859;539.403949470859;837.2069192330482;473.65482070479226;473.65482070479226;1049.3115150464753;399.8691357380533;399.8691357380533;-985.5509908571413;0.35000000000000003
460.3232438132182;460.3232438132182;-645.9795189583795;0;0;0;0;0.8372714745725734;-0.9013963619527303;1.2836056742150377;2.282695240000761;-2.7969787830811463;2.740886160183627;0.8447150815218033;0.16593509765221767;-0.10669434287410334;0.4975322015864168;0.5676479927932525;-0.7106218882144879;-4.7442925462166246;0.18666999784059327;-0.35263168470479117;1.0312231935844411;-2.76247794091674;3.329172544138262;-3.441420518012534;-0.4471753139914242;-0.4092726573633364;0.0;7.698927121429802;423.3177000635624;579.7142936714044;535.4556889247658;354.8858819418673;-0.17965659548791296;-0.09192525627064661;0.11304253651181835;0.48422513541591705;-50.85193973457378;0.0;9.791168880302287;-64.59086268357201;0.0;10.718245286897202;-49.10902861902511;0.0;-1.0087613078735567;-43.240531998777016;0.0;546.6860987217294;546.6860987217294;716.1987369950727;484.708423090427;484.708423090427;1088.7133594995482;391.15260015583414;391.15260015583414;-860.2562295340252;0.36
452.73243650931204;452.73243650931204;-748.095284026214;0;0;0;0;0.8600929812796414;-0.9295101505880874;1.3108647677150274;2.28161835062962;-2.825878869041245;2.7108899031094436;0.8559834745506555;0.17253931040212406;-0.10423753253511796;0.47608509163083246;0.4895169066306846;-0.7178403337676068;-5.190691208852417;0.21032220281294334;-0.3498298810144274;0.9778569700828346;-2.7715574425247276;3.3719792012163046;-3.4222306086150986;-0.4509783249589119;-0.4093722040474238;0.0;7.736625374681354;412.63273336896157;581.1858180847039;547.110850115524;353.68622103390106;-0.18184397542548097;-0.1103501557649352;0.1950295492196761;0.12456338676784018;-50.45094270317028;0.0;9.210179805152581;-64.93585987720176;0.0;10.835131287430162;-49.73305288927608;0.0;-0.25100781274534123;-42.86586820755768;0.0;552.6512607780821;552.6512607780821;586.5861949743507;495.647906420105;495.647906420105;1077.1995732441667;384.07290825514116;384.07290825514116;-698.8353222302094;0.37
444.68914086459034;444.68914086459034;-792.8340712374031;0;0;0;0;0.8829039060681273;-0.9579166654537218;1.3378243725841095;2.2805637709841813;-2.8555208503688894;2.68098859427086;0.8676799276927135;0.17892056666946454;-0.10162035233810765;0.4525398080749639;0.4050856043928329;-0.7406742307046793;-5.546232790117856;0.234346247283465;-0.3450941072151639;0.9204555694622153;-2.780655551046342;3.415692902349957;-3.403006093807478;-0.4548469916353121;-0.40947161715158137;0.0;7.774868115326254;404.47048319773535;581.1033517925979;556.358227219228;355.3368197246087;-0.18076140676076677;-0.1247770799599472;0.2663791478280817;0.07747399502633368;-50.04875612650173;0.0;8.59908224390758;-65.22038078734693;0.0;10.709512817333652;-50.34015609726731;0.0;0.6417758438707533;-42.57850732225236;0.0;557.2852156824254;557.2852156824254;455.6279414632031;506.02061996655726;506.02061996655726;1021.1406719953109;378.83742470921834;378.83742470921834;-516.8636902618777;0.38
436.78498945104303;436.78498945104303;-779.2618516415683;0;0;0;0;0.9057040019317264;-0.986623243619564;1.364485434600554;2.2794356732869607;-2.885888197730583;2.651181623776988;0.8794685519493031;0.18501359207196438;-0.09897302301555552;0.4272111627708107;0.31613176220573785;-0.7794659655701374;-5.81699132821587;0.2582219014702043;-0.3386001662803779;0.8600035158533614;-2.789671905908116;3.4602996366351952;-3.38374675851799;-0.4587802392226541;-0.4095577431683003;0.0;7.813621032630692;399.2838648297612;579.762960988921;563.1153644176002;359.2984090514756;-0.17701043128050034;-0.1348089691349581;0.32787633957485646;0.330818055377756;-49.67374488028891;0.0;7.99054827367449;-65.44515824041189;0.0;10.378640766666186;-50.91110354177774;0.0;1.5915247614189107;-42.38311716567493;0.0;560.6358081013148;560.6358081013148;329.4140883795626;515.4577214426004;515.4577214426004;928.8248204918898;375.50425589836595;375.50425589836595;-329.09126463746685;0.39
429.57248361121333;429.57248361121333;-711.195700004552;0;0;0;0;0.9284920082291087;-1.0156370583566507;1.3908489179955434;2.2781273540830544;-2.916964417143383;2.6214733332887694;0.8910552451433974;0.1907630566857779;-0.0964247146021465;0.4004151354784609;0.2244360965103359;-0.8336719352179467;-6.007174374067017;0.28148591985997323;-0.33059760040808006;0.7974013654742116;-2.7984943156489606;3.5057853568968405;-3.3644575759870605;-0.4627775998137773;-0.4096163393708638;0.0;7.852841431170151;397.2763882186425;577.4675715977505;567.4178499255884;364.9845269057934;-0.1712181031182355;-0.14033498705029943;0.38016227375476896;0.8500580920640881;-49.3507839263632;0.0;7.411667666576848;-65.61347587537624;0.0;9.883711773627613;-51.430704826607624;0.0;2.5303460927559396;-42.277919875749205;0.0;562.8002678287613;562.8002678287613;212.78663777731867;523.6795428228727;523.6795428228727;809.0521252237274;374.0045997387966;374.0045997387966;-148.07164991170862;0.4
423.52513030401553;423.52513030401553;-596.3935441391991;0;0;0;0;0.9512655481631441;-1.0449651055130484;1.4169158428646627;2.2765225380677325;-2.948730224333955;2.591870599601374;0.9021880365422095;0.19612186809318083;-0.09410121484025319;0.3724753964241714;0.1316715366854034;-0.901985895578952;-6.119826145129256;0.30374106657950944;-0.321399936914348;0.7334750523176127;-2.8070000760690825;3.552133017554964;-3.3451461965659215;-0.4668387249866002;-0.40963211839675584;0.0;7.892479528084444;398.40293662888126;574.5147623633269;569.3917949854847;371.8230112286804;-0.16400170572256376;-0.14148720942134582;0.42375821550389997;1.5823833622274277;-49.09956198961186;0.0;6.883950485735397;-65.7306208207219;0.0;9.26641319306175;-51.88782734823374;0.0;3.4047541964751398;-42.25610399064804;0.0;563.9129501030145;563.9129501030145;109.38337371049033;530.4940470785326;530.4940470785326;670.4548199673607;374.17229988886027;374.17229988886027;16.558368576469547;0.41000000000000003
419.00609223211114;419.00609223211114;-445.7220210441747;0;0;0;0;0.9740210410691171;-1.0746141622636811;1.442687302291199;2.274497040656277;-2.981160877098564;2.5623811821943216;0.9126585131845145;0.20104995799263153;-0.09212236516119023;0.34372492277997857;0.03931827990611966;-0.9824907957884358;-6.157866187420225;0.3246627895825308;-0.31137129997609203;0.6689806012147879;-2.8150576702994257;3.5993197654290134;-3.3258212266660214;-0.47096295858677867;-0.4095888832662136;0.0;7.932479235741783;402.3925777763156;571.1847344649824;569.23863678533;379.29946508785866;-0.15593824875276172;-0.1386064773105885;0.4591374875507033;2.4623025203948865;-48.9334268450539;0.0;6.423304310422215;-65.80333866434158;0.0;8.567477586928767;-52.27527324530171;0.0;4.177265981489608;-42.30737564263803;0.0;564.1334779489301;564.1334779489301;21.678957186210482;535.7923513586737;535.7923513586737;521.2112868007048;375.77566377153937;375.77566377153937;158.3087329255917;0.42
416.2477501503634;416.2477501503634;-272.08199237122784;0;0;0;0;0.9967536332494732;-1.1045907211019117;1.468164466729046;2.2719208102562476;-3.0142239227325813;2.5330128177145346;0.9223038616041151;0.2055135817216811;-0.09059909206190472;0.314502081258015;-0.05139444600032727;-1.0728267445734454;-6.125050932601475;0.3440034065880358;-0.30090920728437015;0.6046030815044205;-2.822528874390591;3.647314553694157;-3.3064912834137012;-0.4751489982435361;-0.40946975280479314;0.0;7.972778582594139;408.8001129281383;567.7268386743626;567.2216298715266;386.98573111929863;-0.14753521520836682;-0.13220253252976488;0.48679951820833056;3.419171564850038;-48.85895047283165;0.0;6.039816228972223;-65.8392722715959;0.0;7.825715194550776;-52.58956603043024;0.0;4.82618004564806;-42.41947631611562;0.0;563.6349340374331;563.6349340374331;-49.00958064500833;539.5423620468505;539.5423620468505;368.86423492172435;378.5482003711081;378.5482003711081;273.732342935219;0.43
415.34549636037957;415.34549636037957;-89.001154793036;0;0;0;0;1.0194571509467756;-1.1349009042232465;1.4933485825843509;2.2686602997010934;-3.047877555974851;2.5037729583821062;0.9310082815516693;0.20948494513327712;-0.08963019765647123;0.28514218402891367;-0.13951990857872132;-1.1703640763209364;-6.026566390845692;0.36159285993942897;-0.2904244251557974;0.5409517226793534;-2.829271217153993;3.6960763857580807;-3.2871647203494136;-0.4793946622512123;-0.40925746296718457;0.0;8.013309950016216;417.0798808111972;564.3464356441826;563.6475518610468;394.5549853111206;-0.13920533985682187;-0.12290021005895606;0.5073159613101732;4.385633823405967;-48.87629431733983;0.0;5.737563492574705;-65.8463872876634;0.0;7.07673162730255;-52.8306179285722;0.0;5.34404966520215;-42.57954416551574;0.0;562.5921595037297;562.5921595037297;-102.51246115735057;541.7800798209282;541.7800798209282;220.09582705387356;382.21590205636204;382.21590205636204;362.08370164542976;0.44
416.2671787816374;416.2671787816374;90.91699053143282;0;0;0;0;1.0421240782050618;-1.1655503649452599;1.5182409704696265;2.264581051019849;-3.082069687208959;2.47466896522446;0.9387025297505726;0.2129419176103231;-0.08929931853799301;0.25596666203426804;-0.22439981908725506;-1.2723698433820727;-5.869137053833135;0.37733518104000185;-0.28031987928752466;0.4785544935051301;-2.8351406743147254;3.745553296374565;-3.2678498287986097;-0.4836967628370351;-0.4089347162534183;0.0;8.054000310509462;426.66439587552156;561.195426233736;558.8430717185414;401.78426157787624;-0.13125080510575754;-0.11137492664549235;0.5213384009105446;5.304982731750204;-48.980266488278666;0.0;5.514800544457863;-65.83241995496347;0.0;6.3513166554740845;-53.001247847548335;0.0;5.735176751258043;-42.775227760730886;0.0;561.1708473041557;561.1708473041557;-139.72971124994274;542.5981234195705;542.5981234195705;80.45813990169609;386.51931300115086;386.51931300115086;424.80212943637446;0.45
418.87592019684627;418.87592019684627;257.3203858283965;0;0;0;0;1.06474556099309;-1.196544183246835;1.5428430263664044;2.259550337823651;-3.11673770683813;2.4457084978176513;0.9453609251226825;0.2158676478111122;-0.08967252945575226;0.2272723417855593;-0.30564769704473277;-1.3761560470154282;-5.660710968179248;0.39120056905797457;-0.27097117657996755;0.4178551755751218;-2.8399944346848636;3.7956820584283095;-3.248555246119067;-0.48805107010425947;-0.40848454280386093;0.0;8.09477164198887;437.029394983321;558.3690387732064;553.1296339829046;408.5461242454309;-0.12386047088999143;-0.09828883342354107;0.5295737842190918;6.135726897693802;-49.16180123614341;0.0;5.36472672852209;-65.80440186965397;0.0;5.673957596901952;-53.10656295318167;0.0;6.01248707646797;-42.99549587317369;0.0;559.5184657119978;559.5184657119978;-162.45215452421382;542.1318671707988;542.1318671707988;-45.85836959723747;391.2293146197128;391.2293146197128;464.88867356219646;0.46
422.9608845228604;422.9608845228604;402.8981817089708;0;0;0;0;1.0873114373598578;-1.2278867619097398;1.5671562263305554;2.2534397048768566;-3.1518088398179764;2.4168998377588755;0.9509959200943343;0.21825000785500445;-0.0907969541072707;0.19932287164313175;-0.383114656130382;-1.479200001032808;-5.409894723015724;0.4032139383829433;-0.2627110157656814;0.35921462339020194;-2.843693570418554;3.8463885073820223;-3.2292902962055274;-0.49245234021131784;-0.4078906368398364;0.0;8.13554164624428;447.7345860016419;555.9093210516706;546.8019685014546;414.7927628134272;-0.117119727263022;-0.08423984393302843;0.5327428453934524;6.852774997874112;-49.40953825093123;0.0;5.2767770939890655;-65.7683104230507;0.0;5.06197794100775;-53.15326396648823;0.0;6.194242179292072;-43.231130355110835;0.0;557.7579034481126;557.7579034481126;-173.09473702440403;540.5444838014054;540.5444838014054;-156.13058866381095;396.156428433703;396.156428433703;486.263568349068;0.47000000000000003
428.2695707497777;428.2695707497777;523.533932453636;0;0;0;0;1.109810291900666;-1.2595817284679096;1.5911821331307963;2.2461272706243176;-3.187200942697232;2.388251958703115;0.9556509600164512;0.22008089265982392;-0.09270052189500189;0.17234342617600956;-0.4568439254240163;-1.5792312736903062;-5.125337766918715;0.4134414558442964;-0.2558188299178597;0.30291631209197417;-2.8461054701559907;3.897588331249968;-3.210065065727282;-0.49689438068302777;-0.40713764097236443;0.0;8.17622481856885;458.4393133935863;553.8137346326287;540.1138438323646;420.5366017562169;-0.1110291194596671;-0.06973068800057364;0.5315375861126985;7.445809765979899;-49.71123567736931;0.0;5.238176251653407;-65.72886873489587;0.0;4.525552894165672;-53.148957566797826;0.0;6.301041621176118;-43.474932088335976;0.0;555.9842176930841;555.9842176930841;-174.39215651764107;538.0125843852226;538.0125843852226;-249.04334049642387;401.15429712641765;401.15429712641765;493.18971259073203;0.48
434.5363828387927;434.5363828387927;617.937675913918;0;0;0;0;1.1322295316733257;-1.2916318467115997;1.61492240194845;2.237499701300697;-3.222823602178762;2.3597742762899663;0.9593926247812234;0.22135545992161443;-0.0953927779532603;0.1465188376716337;-0.5270205442377177;-1.6742844879454009;-4.8152194072784065;0.421976755346314;-0.2505158550203345;0.24917508479884834;-2.8471059381861514;3.9491881802796396;-3.1908901450634435;-0.5013701330130739;-0.4062113643429453;0.0;8.216733826663337;468.8990908409192;552.0462778610209;533.2720616714407;425.83108611222707;-0.1055266470455887;-0.055158387884527454;0.5265890281796679;7.916015050990699;-50.05486275739057;0.0;5.2354442489945345;-65.68948933657524;0.0;4.068535432512285;-53.10155233966001;0.0;6.353436034465446;-43.72169997819407;0.0;554.2642812742322;554.2642812742322;-169.11422527659602;534.7139455794903;534.7139455794903;-324.48443115337705;406.11860173036746;406.11860173036746;489.8212305700217;0.49
441.5044815190676;441.5044815190676;686.9808208945877;0;0;0;0;1.1545554800095634;-1.3240389402286081;1.63837878216239;2.2274538094508576;-3.258579426348712;2.3314761226568446;0.9623029816254759;0.2220714086298434;-0.09886649194327529;0.12199458100549991;-0.5939217075669752;-1.7627215086422803;-4.486914828966743;0.4289282458498178;-0.24696487803410816;0.1981474952934004;-2.8465809086906315;4.001086983576105;-3.1717760793638465;-0.5058717623948996;-0.40509893327568625;0.0;8.256981091196113;478.95107144702246;550.5487546859946;526.4374765273011;430.75402917005056;-0.10050943748225706;-0.040819656113615536;0.5184498374043853;8.272315027641689;-50.42932865667012;0.0;5.255623079782436;-65.65233407069286;0.0;3.689812733727643;-53.01878764913812;0.0;6.370275672896694;-43.968054252590896;0.0;552.638708350305;552.638708350305;-159.8419866316225;530.8182288769024;530.8182288769024;-383.2513139105994;410.9828899356568;410.9828899356568;479.8983757023527;0.5
448.94013740910395;448.94013740910395;732.9535274148159;0;0;0;0;1.1767734843790136;-1.3568038295333043;1.6615531130257577;2.2158977655525223;-3.2943654536752645;2.303366056584147;0.9644728080170654;0.2222283748862827;-0.10309974803220301;0.09887969430968174;-0.6578716734563055;-1.8432293110271287;-4.146846204723972;0.4344084307332437;-0.24527340336847397;0.14994222096201706;-2.8444277615194085;4.05317739500753;-3.152732644924851;-0.5103907518981099;-0.403788881739114;0.0;8.296880433202084;488.4954071937785;549.2506447175019;519.730720279302;435.3945061499636;-0.09585225000015278;-0.026925881233495805;0.5075909945555644;8.527941081659144;-50.82488135451687;0.0;5.287123569357472;-65.61845343436482;0.0;3.3848555245545437;-52.907912563162114;0.0;6.367748560429373;-44.21217041473396;0.0;551.1252771548731;551.1252771548731;-148.82047569500457;526.4809321395109;526.4809321395109;-426.73431080163743;415.7126797648039;415.7126797648039;466.5775697582459;0.51
456.64034245575385;456.64034245575385;758.8971857339209;0;0;0;0;1.1988680344812588;-1.3899262836929045;1.6844473122317514;2.2027519360855328;-3.330074628045498;2.2754511359624106;0.9659960213587192;0.22182749212683972;-0.10805822027077146;0.07725070541915084;-0.7192035057943286;-1.9148008888109416;-3.8004809103290533;0.4385256449422364;-0.24549888568685296;0.1046294456194695;-2.840556251748306;4.1053473146797455;-3.133768082968235;-0.5149180019666335;-0.4022711928236748;0.0;8.336348661343779;497.47708600281044;548.0769366461222;513.2402284166944;439.84324439714953;-0.0914219427595568;-0.013621929227103997;0.4944086760979465;8.697735229055654;-51.233248789987435;0.0;5.320204684707265;-65.58797002927732;0.0;3.1471817324981837;-52.77550552593395;0.0;6.358964154852391;-44.453476061057415;0.0;549.7231195927069;549.7231195927069;-137.88318233016946;521.8402873945269;521.8402873945269;-456.62785694979664;420.2989066186275;420.2989066186275;452.3670766307912;0.52
464.43518975452747;464.43518975452747;768.0866874596093;0;0;0;0;1.220822886957908;-1.4234049868944656;1.7070633575317842;2.187949376354775;-3.365597299153011;2.247736258993778;0.96696538401202;0.22087113228488334;-0.11369740950443466;0.0571558231299506;-0.7782285760831293;-1.9767062221229295;-3.452422625202966;0.44137821996375387;-0.24765487597601582;0.06224862961489276;-2.83488908101802;4.157481443613182;-3.1148884022193295;-0.519443936401336;-0.40053730281753575;0.0;8.375307001083625;505.87059124369165;546.9539305456925;507.0306652650219;444.1859337064601;-0.0870881269633806;-0.0010046595709404767;0.4792367381058577;8.79628472581408;-51.64760280487908;0.0;5.347160183024884;-65.56027813880718;0.0;2.9695623491367273;-52.6274093046389;0.0;6.3539127880454815;-44.692346331935745;0.0;548.4171119633895;548.4171119633895;-128.43211930754637;517.016512141104;517.016512141104;-474.6997869717229;424.7514407128847;424.7514407128847;439.1344689258435;0.53
472.1866841964601;472.1866841964601;763.6775277471056;0;0;0;0;1.242621193447735;-1.4572375200054954;1.7294032624521956;2.171436014565122;-3.400822710962732;2.220223644402056;0.9674693803694894;0.2193628211112018;-0.11996470486404776;0.038618911798419926;-0.8352138200909622;-2.02845911422894;-3.1065445746992895;0.4430508432301288;-0.25171725592716904;0.022814527795272235;-2.827362147371881;4.2094628326521075;-3.096096824269609;-0.5239586145812845;-0.39858007796100836;0.0;8.41368230354305;513.6681502529149;545.8133309794657;501.15051203030833;448.4987555186133;-0.08273070508004744;0.010861178608989375;0.46236087115955526;8.836799872689554;-52.06241746544362;0.0;5.36230424173377;-65.53424032896794;0.0;2.844899141948126;-52.46874930353095;0.0;6.35965262768367;-44.92981947999303;0.0;547.1820899318745;547.1820899318745;-121.45497181778944;512.1127154601762;512.1127154601762;-482.6290575382517;429.0931067620192;429.0931067620192;428.15665147830623;0.54
479.78545289334033;479.78545289334033;748.4984528224396;0;0;0;0;1.2642456290976292;-1.4914203568143296;1.7514690476748982;2.1531705675656068;-3.435640441969851;2.192912484434504;0.9675900827607983;0.217307305518155;-0.1268012103240264;0.021643007456310807;-0.8903662091613977;-2.0697841340033922;-2.7661273136251694;0.443612766914104;-0.25763006893501966;-0.013678386672249104;-2.8179245145835767;4.261174387508348;-3.077393407765983;-0.5284518479779274;-0.3963937718768737;0.0;8.451408004376619;520.8714437610761;544.5950269930499;495.6381687542036;452.8455269999396;-0.07824504464696014;0.021930635942766896;0.4440317745682775;8.83057195768871;-52.47327737412098;0.0;5.361836325284617;-65.50836969957969;0.0;2.7667767472568894;-52.304003836471225;0.0;6.380616256766963;-45.167343682372234;0.0;545.9866716728102;545.9866716728102;-117.56353382154578;507.21679295055094;507.21679295055094;-481.90873320912124;433.35442389776745;433.35442389776745;420.19129390132855;0.55
487.14649184698624;487.14649184698624;724.9566046114376;0;0;0;0;1.2856785190557418;-1.5259488742852336;1.773262709840372;2.133124229883088;-3.469941762932323;2.165798775727349;0.9674018081046678;0.214710741813116;-0.13414333303376075;0.006213310588992236;-0.9438236447484073;-2.1005863434935605;-2.433978569143012;0.4431174981536348;-0.2653107260643267;-0.04725278495222753;-2.806538143409564;4.31250029373765;-3.058774857519244;-0.5329133178252605;-0.393973969726272;0.0;8.488424827867913;527.4862486281867;543.2489035681439;490.5263446375977;457.2760247984427;-0.07354539715850847;0.032169928790608385;0.4244759925652159;8.786839805224385;-52.87667494193299;0.0;5.343643713120604;-65.48099201853303;0.0;2.729733108685012;-52.13709935334169;0.0;6.418968619555555;-45.40655969137899;0.0;544.7965878998665;544.7965878998665;-117.04214350833274;502.40375192223166;502.40375192223166;-473.8037469784564;437.5691488995563;437.5691488995563;415.5563564957399;0.56
494.20474131420167;494.20474131420167;695.0210121851179;0;0;0;0;1.3069019608879162;-1.5608173758428532;1.7947861894869575;2.1112801769684446;-3.5036208819278496;2.1388753143194026;0.9669703877406138;0.21158096911484728;-0.14192416314612658;-0.007700302361684288;-0.9956514046580063;-2.1209251608351405;-2.1125254573090078;0.4416036277662494;-0.27465455029759067;-0.07794628906519657;-2.7931774266569924;4.363327329667614;-3.0402345049495834;-0.5373326903651466;-0.3913175235790146;0.0;8.524681248034188;533.5193775298143;541.7359399821269;485.84477865650274;461.8252053420949;-0.06856698866408818;0.041551099550472224;0.4039040595100002;8.712916896130213;-53.26982130408911;0.0;5.3070789900305435;-65.45038553935564;0.0;2.7293095630231763;-51.9715096206844;0.0;6.474977927695935;-45.64912025580438;0.0;543.5774893783072;543.5774893783072;-119.89903879808662;497.73804288232003;497.73804288232003;-459.3502710108604;441.7706301506175;441.7706301506175;414.21025990173916;0.5700000000000001
500.91098759117415;500.91098759117415;660.2552078787978;0;0;0;0;1.3278979412580159;-1.5960191264316883;1.8160413396516115;2.087632921433295;-3.5365760527225136;2.1121318309828636;0.9663529059724633;0.2079278307662725;-0.15007468829687154;-0.02014115796088621;-1.0458432736169032;-2.130992694566536;-1.80387830272123;0.4390964987881747;-0.28553872868377966;-0.10580991699444302;-2.777828567892588;4.413546041595208;-3.0217624356205723;-0.5416997262858474;-0.38842248230844967;0.0;8.56013372818047;538.977312415449;540.0287704890878;481.621484754309;466.5131403201013;-0.06326706124926154;0.05004938185699831;0.38251623001916824;8.61446453678878;-53.65048455233186;0.0;5.2527340108198555;-65.41489835046345;0.0;2.76194427316448;-51.81034403940429;0.0;6.547379605537971;-45.896545357499214;0.0;542.2972429551189;542.2972429551189;-125.91664377321308;493.27560668469044;493.27560668469044;-439.3836412964728;445.98894087157214;445.98894087157214;415.82888581830616;0.58
507.2283621422181;507.2283621422181;621.8765118326464;0;0;0;0;1.3486484455846952;-1.6315463978937863;1.8370298963984721;2.062187557823668;-3.5687105296454615;2.0855552391222556;0.9655977949443983;0.20376350744750868;-0.15852488547338298;-0.031163955410953917;-1.0943265267650757;-2.1310961905200023;-1.5098704065939175;0.43561046354946964;-0.29782578825598416;-0.13090693284249932;-2.7604888404035766;4.463051763021242;-3.003345735398298;-0.5460043815763006;-0.38528801843039673;0.0;8.594746765043181;543.8660164498843;538.1118269427084;477.88279363498725;471.34553794120814;-0.05762505244554526;0.05764262888416663;0.3605063621934464;8.495828951168619;-54.01686109540852;0.0;5.182221831336544;-65.37304419033934;0.0;2.82476734891324;-51.65641590890726;0.0;6.633722813518457;-46.15011132819557;0.0;540.9277478902591;540.9277478902591;-134.69873425856622;489.06546479446735;489.06546479446735;-414.58325910734993;450.2487403876875;450.2487403876875;419.8774754159315;0.59
513.1295473841628;513.1295473841628;580.8260089255905;0;0;0;0;1.369135559722775;-1.6673905230777573;1.8577534522626589;2.0349589275381152;-3.5999333594940803;2.0591299673614927;0.9647451987004031;0.19910282857464512;-0.16720472447128112;-0.0408331403712613;-1.1409699781710911;-2.121643818579719;-1.232080232485939;0.431151521346113;-0.31136671822523004;-0.15331194699607384;-2.7411657590511105;4.511745467299257;-2.984968826510609;-0.55023689779398;-0.3819143536114417;0.0;8.628492765216391;548.1915086643102;535.9811492423021;474.65249516166483;476.3147385182558;-0.05164205319244376;0.06431219285223172;0.33806456699896775;8.360387161003997;-54.367480708209996;0.0;5.097972418041461;-65.32357820385977;0.0;2.9153473577695532;-51.51228621257924;0.0;6.730693004058985;-46.41077130950126;0.0;539.4463139935483;539.4463139935483;-145.71351868855209;485.1507777627112;485.1507777627112;-385.5248820768944;454.56780055874157;454.56780055874157;425.67629280714505;0.6
518.5946910377648;518.5946910377648;537.838622482841;0;0;0;0;1.3893415630117794;-1.7035419570322539;1.8782134333265499;2.005970731242909;-3.6301600077373917;2.0328383507908345;0.9638275368059404;0.19396353312016257;-0.1760451051372011;-0.04922141882728026;-1.1855943506620505;-2.103132838363868;-0.9718425792919133;0.42572016599500734;-0.3260038452577808;-0.17311017924043798;-2.719876193337115;4.559534450103981;-2.966613866597825;-0.5543878805186752;-0.37830268401641504;0.0;8.661351781310362;551.9608785838569;533.6439293305065;471.9503890078471;481.4010754816708;-0.04533966490011623;0.0700447137410564;0.3153791291797809;8.210867305092002;-54.701142583670915;0.0;5.003044829605925;-65.26555435722935;0.0;3.031429377836214;-51.3802823250306;0.0;6.834405415148863;-46.67910405873055;0.0;537.8366468079658;537.8366468079658;-158.33226291450376;481.56937354948906;481.56937354948906;-352.7327774244392;458.9561261261568;458.9561261261568;432.4592362450329;0.61
