mot0_state_s;mot0_vel_s;mot0_vel_ds;stp_setpoint_x_cons;stp_setpoint_y_cons;stp_setpoint_z_cons;stp_setpoint_psi_cons;sys_state_px;sys_state_py;sys_state_pz;sys_state_vx;sys_state_vy;sys_state_vz;sys_state_qr;sys_state_qx;sys_state_qy;sys_state_qz;sys_state_wx;sys_state_wy;sys_state_wz;sys_euler_roll;sys_euler_pitch;sys_euler_yaw;ctlvtol_command_fx;ctlvtol_command_fy;ctlvtol_command_fz;ctlvtol_att_roll;ctlvtol_att_pitch;ctlvtol_att_yaw;ctlvtol_att_A;ctlatt_command_s0;ctlatt_command_s1;ctlatt_command_s2;ctlatt_command_s3;ctlatt_command_Gr;ctlatt_command_Gp;ctlatt_command_Gy;ctlmot0_command_u;ctlmot0_integral_int;ctlmot0_integral_corr;ctlmot1_command_u;ctlmot1_integral_int;ctlmot1_integral_corr;ctlmot2_command_u;ctlmot2_integral_int;ctlmot2_integral_corr;ctlmot3_command_u;ctlmot3_integral_int;ctlmot3_integral_corr;mot1_state_s;mot1_vel_s;mot1_vel_ds;mot2_state_s;mot2_vel_s;mot2_vel_ds;mot3_state_s;mot3_vel_s;mot3_vel_ds;t
0.0;0.0;2265.144863915715;0;0;0;0;0.0;0.0;0.0;2.349619;-2.409138;4.907362;1.0;0.0;0.0;0.0;1.0;-0.5;1.5;0.0;-0.0;0.0;-2.458050961716265;2.5203166887087645;-5.133830584273388;-0.44513965319457865;-0.48396019073636043;0.0;5.853253039665647;421.99985794654225;479.3792496480108;414.07342879507564;355.1420486514324;-0.08864519468320424;0.005666149700236537;-0.1853;12.0;0.0;-0.0;12.0;0.0;-0.0;12.0;0.0;-0.0;12.0;0.0;-0.0;0.0;0.0;2265.144863915715;0.0;0.0;2265.144863915715;0.0;0.0;2265.144863915715;0.0
22.555862500047027;22.555862500047027;2245.6651308294845;0;0;0;0;0.023496189649305714;-0.02409138070456606;0.048583331058333484;2.349618894892548;-2.409138211479045;4.809304211222639;0.9999559029695785;0.004996095998129694;-0.0025226453937885426;0.007541047758040191;0.9984363632494708;-0.5090861070432736;1.5164596176287184;0.009953999457034951;-0.0051204422776765625;0.015056989993844335;-2.468558667211851;2.5310909029327484;-5.052974678035943;-0.44122027278693055;-0.47867592625904265;0.0;5.9270138321234676;425.62544965598937;481.63295350750684;415.540575319622;358.55243100961104;-0.08841593998385029;0.007253010877505099;-0.1942754821077763;12.0;-4.030695871559423;-0.0;12.0;-4.816329535075068;-0.0;12.0;-4.15540575319622;-0.0;12.0;-3.5855243100961105;-0.0;22.555862500047027;22.555862500047027;2245.6651308294845;22.555862500047027;22.555862500047027;2245.6651308294845;22.555862500047027;22.555862500047027;2245.6651308294845;0.01
44.90618884258332;44.90618884258332;2224.0515149278963;0;0;0;0;0.0469923688830484;-0.04818278249617134;0.09618734275007956;2.3496167115309974;-2.409142641113139;4.71149811782389;0.9998208182731326;0.00998361699437372;-0.0050898256925461715;0.015256225410387396;0.9968085549857758;-0.5175860800841061;1.5700240019906382;0.019810737360046557;-0.010482643981407797;0.030411712049641975;-2.479064193886544;2.5418695394047433;-4.9719441176671975;-0.43737680348900504;-0.4735255902398716;0.0;6.001136955056022;429.3573217234523;483.85745260940104;416.7894374927138;362.09908640077373;-0.0880669545927431;0.009092304707797098;-0.20800649895224152;12.0;-7.875207200368113;-0.0;12.0;-9.429345436168608;-0.0;12.0;-8.097741503122887;-0.0;12.0;-6.980956549103378;-0.0;44.90618884258332;44.90618884258332;2224.0515149278963;44.90618884258332;44.90618884258332;2224.0515149278963;44.90618884258332;44.90618884258332;2224.0515149278963;0.02
67.03006878688699;67.03006878688699;2200.3909207604265;0;0;0;0;0.07048848575104948;-0.07227431167435566;0.14281619603898832;2.349605958044223;-2.4091646740144643;4.614272493681263;0.999586267229736;0.014960581864690934;-0.007701752081450438;0.023327202379822252;0.9950776419648669;-0.5257515697978148;1.6595667221704786;0.029557595531004743;-0.016095803264261205;0.04642734592250609;-2.489560727044706;2.552666648481621;-4.8910847103851705;-0.43363108148216994;-0.4685315040837325;0.0;6.07533927104654;433.2034119648601;486.01424205160913;417.78961487828434;365.8074050579137;-0.08754754192893527;0.011215063931362729;-0.22653473638783095;12.0;-11.536940632147843;-0.0;12.0;-13.840425968258867;-0.0;12.0;-11.826575763479896;-0.0;12.0;-10.18996871125668;-0.0;67.03006878688699;67.03006878688699;2200.3909207604265;67.03006878688699;67.03006878688699;2200.3909207604265;67.03006878688699;67.03006878688699;2200.3909207604265;0.03
88.9074955221466;88.9074955221466;2174.777005709485;0;0;0;0;0.09398440086178383;-0.0963662570690496;0.1884772856830895;2.3495756624243676;-2.409227423828368;4.517945303344467;0.9992378048643623;0.019923815194120877;-0.010361565948166965;0.03192943577741618;0.9932034292295472;-0.5338276665644791;1.7838393863132787;0.03917506182969739;-0.021981419312542456;0.06345520994801372;-2.5000367259963308;2.5635065396430656;-4.8107324014399575;-0.43000443061626703;-0.46371208464141994;0.0;6.14934353668223;437.16642123569557;488.0627920065909;418.5165543697929;369.70507965304364;-0.08680254378210463;0.013644409406164883;-0.2498799130233387;12.0;-15.019529889283334;-0.0;12.0;-18.050753200455908;-0.0;12.0;-15.341440619308957;-0.0;12.0;-13.216718819918247;-0.0;88.9074955221466;88.9074955221466;2174.777005709485;88.9074955221466;88.9074955221466;2174.777005709485;88.9074955221466;88.9074955221466;2174.777005709485;0.04
110.519429414285;110.519429414285;2147.309418031545;0;0;0;0;0.11747984466385102;-0.12045918560468317;0.233181125720814;2.3495107939656608;-2.4093633873252007;4.422822418668455;0.9987544979561779;0.024868950218242675;-0.01307517166111926;0.04123139596690512;0.9911446075240925;-0.5420517159015882;1.9414831593655162;0.04863620082970758;-0.02817226254563784;0.08183349448177969;-2.5104763458404293;2.574423462880819;-4.731211880308851;-0.4265175889732633;-0.4590821854049066;0.0;6.222880073886331;441.2425259169771;489.95987077528247;418.9529996587263;373.822887654671;-0.0857711407084848;0.016393214895139806;-0.27804166741510766;12.0;-18.326760854310255;-0.0;12.0;-22.061276952987267;-0.0;12.0;-18.641895660674756;-0.0;12.0;-16.065872741243492;-0.0;110.519429414285;110.519429414285;2147.309418031545;110.519429414285;110.519429414285;2147.309418031545;110.519429414285;110.519429414285;2147.309418031545;0.05
131.8478539806033;131.8478539806033;2118.093006094963;0;0;0;0;0.14097437923527828;-0.1445540341892179;0.2769412227139819;2.3493927436604514;-2.4096140553349485;4.329196453656809;0.9981081863188745;0.02979042638054761;-0.01585104356363122;0.05139380621493569;0.988858735744906;-0.5506521217972649;2.13104085467522;0.0579060629715834;-0.034711169446640364;0.1018861911562149;-2.5208599229423934;2.5854612427724666;-4.652835305081749;-0.423190661351287;-0.454653449800112;0.0;6.295688388054712;445.42002337431694;491.6588682119455;419.09064003938806;378.19534937377625;-0.0843856959449912;0.019461537919300935;-0.31100189245208376;12.0;-21.46248254824739;-0.0;12.0;-25.87267134096387;-0.0;12.0;-21.727607766925786;-0.0;12.0;-18.742631940838404;-0.0;131.8478539806033;131.8478539806033;2118.093006094963;131.8478539806033;131.8478539806033;2118.093006094963;131.8478539806033;131.8478539806033;2118.093006094963;0.06
152.87582385559702;152.87582385559702;2087.237009078932;0;0;0;0;0.16446736516184643;-0.1686521975367582;0.3197739379619036;2.349199861831351;-2.410029488946902;4.237345723917341;0.9972625732745531;0.03468147746177265;-0.018700006067488097;0.06256888076323398;0.9863020804903576;-0.5598471468182066;2.3509694380657167;0.06694099493186766;-0.04164963530287966;0.12392224126307412;-2.53116452256472;2.596672874398716;-4.575901152277217;-0.42004309517279426;-0.45043466796297815;0.0;6.367518716475151;449.6779093090561;493.1091774996613;418.93199879160227;382.86116145514825;-0.08257076314598429;0.02283380314522631;-0.34872755643951847;12.0;-24.430503402781984;-0.0;12.0;-29.485284576154452;-0.0;12.0;-24.598449215035778;-0.0;12.0;-21.252765015583854;-0.0;152.87582385559702;152.87582385559702;2087.237009078932;152.87582385559702;152.87582385559702;2087.237009078932;152.87582385559702;152.87582385559702;2087.237009078932;0.07
173.5875046132544;173.5875046132544;2054.854239230114;0;0;0;0;0.18795793406552463;-0.19275561161699656;0.361698339955306;2.348908050715561;-2.410667868953308;4.1475333352276476;0.9961721939943233;0.03953410747353757;-0.021634985995636753;0.07489954365534744;0.9834293372572599;-0.5698437167888889;2.599652784273364;0.07568782957925978;-0.049046177439803273;0.14823492906281344;-2.541364546512702;2.6081200893141703;-4.500693197361876;-0.4170936768558376;-0.4464321301648536;0.0;6.4381334937305645;453.98437548744437;494.255690109519;418.49260701954574;387.86331102307156;-0.08024238198851763;0.026475717153486136;-0.3911740378736011;12.0;-27.234472111523882;-0.0;12.0;-32.89908323869367;-0.0;12.0;-27.254617046675264;-0.0;12.0;-23.602639887258597;-0.0;173.5875046132544;173.5875046132544;2054.854239230114;173.5875046132544;173.5875046132544;2054.854239230114;173.5875046132544;173.5875046132544;2054.854239230114;0.08
193.96820441052506;193.96820441052506;2021.060265427576;0;0;0;0;0.21144496731935236;-0.21686683249882327;0.40273604837457905;2.348491409354;-2.411595025360386;4.060006403875914;0.9947813121729077;0.04433905280263459;-0.024670736523748144;0.08851860882036897;0.9801932596645426;-0.5808362361325026;2.875414529812059;0.08408295046849376;-0.0569644406154528;0.17510154747435572;-2.5514323982653897;2.619872898605798;-4.42747962934481;-0.41436054539476375;-0.4426499717235713;0.0;6.507308723910793;458.2952114102486;495.03845479514507;417.80350132985086;393.2487863257269;-0.07730778653130803;0.03033089849175991;-0.4382889812796736;12.0;-29.877742181521114;-0.0;12.0;-36.11359274051257;-0.0;12.0;-29.696777013841228;-0.0;12.0;-25.79925270438332;-0.0;193.96820441052506;193.96820441052506;2021.060265427576;193.96820441052506;193.96820441052506;2021.060265427576;193.96820441052506;193.96820441052506;2021.060265427576;0.09
214.00439751174764;214.00439751174764;1985.972607300596;0;0;0;0;0.2349270814577966;-0.2409891104171123;0.44291107095484794;2.3479229279913327;-2.4128839524689707;3.9749954097221076;0.9930227965171868;0.049085730403549584;-0.027823532200460178;0.10354790062492976;0.976544224255845;-0.5930054179397648;3.1765308731414863;0.09205124294467233;-0.06547101523445331;0.20478336399694222;-2.5613392028966127;2.6320091187188384;-4.3565123010271956;-0.41186121974349327;-0.4390905057565488;0.0;6.574835252396966;462.5520918358859;495.39254760245586;416.9140610930367;399.0678158850535;-0.0736656496357908;0.034317223342589;-0.49001665099780883;12.0;-32.3632191247625;-0.0;12.0;-39.127836172431884;-0.0;12.0;-31.926235580666347;-0.0;12.0;-27.850248819128606;-0.0;214.00439751174764;214.00439751174764;1985.972607300596;214.00439751174764;214.00439751174764;1985.972607300596;214.00439751174764;214.00439751174764;1985.972607300596;0.1
233.68373984315164;233.68373984315164;1949.709948498628;0;0;0;0;0.2584026207639475;-0.2651264589394745;0.48224963454192243;2.347175229267165;-2.41461431356782;3.8927136813527397;0.9908170289032733;0.05376217312554482;-0.03111083459921771;0.1200972936691514;0.9724297589552802;-0.6065171307837968;3.501243182157469;0.09950496122997687;-0.07463293828649505;0.23752591322954558;-2.5710555791561154;2.6446138842246323;-4.288026114843518;-0.409612636545279;-0.4357545414796603;0.0;6.6405199326629285;466.68073091271157;495.2481974377048;415.8951602146193;405.37258966284867;-0.06920698372610848;0.03832291286956339;-0.5463027139827139;12.0;-34.6931890354581;-0.0;12.0;-41.940274171691456;-0.0;12.0;-33.94514320769506;-0.0;12.0;-29.763930740639616;-0.0;233.68373984315164;233.68373984315164;1949.709948498628;233.68373984315164;233.68373984315164;1949.709948498628;233.68373984315164;233.68373984315164;1949.709948498628;0.11
252.99507680882138;252.99507680882138;1912.3913769513938;0;0;0;0;0.28186965748904524;-0.2892837191423132;0.5207800116499002;2.3462213537624788;-2.416871937690883;3.8133570113108437;0.9880708959294793;0.05835495448964758;-0.03455092819779551;0.13826365127648188;0.9677940631589002;-0.6215212624904654;3.847770280131718;0.10634255808474795;-0.08451484692423845;0.2735596380761989;-2.580552461366145;2.6577791500542833;-4.222238542769106;-0.4076311947717134;-0.4326416869228239;0.0;6.704186685888249;470.5888801682582;494.53121257008877;414.842544912235;412.21544148859226;-0.06381681525376824;0.042202421293785986;-0.6070993168116693;12.0;-36.86912706905247;-0.0;12.0;-44.548748898960824;-0.0;12.0;-35.75673125838589;-0.0;12.0;-31.549247757094022;-0.0;252.99507680882138;252.99507680882138;1912.3913769513938;252.99507680882138;252.99507680882138;1912.3913769513938;252.99507680882138;252.99507680882138;1912.3913769513938;0.12
271.9284436736913;271.9284436736913;1874.1356591043605;0;0;0;0;0.3053260001377288;-0.3134666187214275;0.5585323438050476;2.3450355879302758;-2.4197483091490795;3.737103398202151;0.9846769150772944;0.06284910636658336;-0.038162526132786;0.15812964409609145;0.9625775467892369;-0.6381505997221566;4.214320293914121;0.1124475407235665;-0.09517575598499271;0.3131008934379783;-2.5898019692653294;2.671603183908031;-4.15934927752181;-0.4059328038865701;-0.42975063592270185;0.0;6.765677453124809;474.16413944112674;493.1637600833878;413.8802571863355;419.64649952654906;-0.05737674978896795;0.045772223086036096;-0.6723702317130914;12.0;-38.89148402672682;-0.0;12.0;-46.95043573170649;-0.0;12.0;-37.365583062161036;-0.0;12.0;-33.2157619842713;-0.0;271.9284436736913;271.9284436736913;1874.1356591043605;271.9284436736913;271.9284436736913;1874.1356591043605;271.9284436736913;271.9284436736913;1874.1356591043605;0.13
290.47505888444414;290.47505888444414;1835.0605541957539;0;0;0;0;0.32876921023564243;-0.33768182596002805;0.5955384629238198;2.3435943330359645;-2.4233400486201355;3.664112911537433;0.9805125458676067;0.06722803401992399;-0.04196434558065427;0.17976243361179672;0.9567164144836967;-0.6565197215040326;4.599101962067119;0.1176874338924309;-0.1066654342080704;0.35635331235881224;-2.5987783245482716;2.6861900475332696;-4.099540011284812;-0.4045329322057471;-0.42707944007304854;0.0;6.82485304122556;477.27153588886;491.06556620579994;413.1637974587411;427.71083695674565;-0.049768549874679505;0.04880664510050215;-0.7420957280276906;12.0;-40.75944879677098;-0.0;12.0;-49.14180695702758;-0.0;12.0;-38.777936600011536;-0.0;12.0;-34.77358591710185;-0.0;290.47505888444414;290.47505888444414;1835.0605541957539;290.47505888444414;290.47505888444414;1835.0605541957539;290.47505888444414;290.47505888444414;1835.0605541957539;0.14
308.62731075506724;308.62731075506724;1795.2821736806236;0;0;0;0;0.3521966279855827;-0.3619369984542336;0.631831711928023;2.3418770143854224;-2.427748382413203;3.594527674498535;0.9754397352978613;0.07147343384513109;-0.0459746527226767;0.20321221017316365;0.9501423194970574;-0.6767239048230281;5.000335315220306;0.1219129490971686;-0.11902036013719074;0.4035095133982898;-2.607458813527122;2.7016490632870975;-4.042974337453998;-0.4034466521562639;-0.42462576697466103;0.0;6.881593864640987;479.75080705831516;488.15563528453237;412.88255587168254;436.44517317567045;-0.04087886248630732;0.0510339513001258;-0.8162766773323088;12.0;-42.47068375980346;-0.0;12.0;-51.11861272102846;-0.0;12.0;-40.00201156988392;-0.0;12.0;-36.233287060014106;-0.0;308.62731075506724;308.62731075506724;1795.2821736806236;308.62731075506724;308.62731075506724;1795.2821736806236;308.62731075506724;308.62731075506724;1795.2821736806236;0.15
326.3787379899883;326.3787379899883;1754.9143899289843;0;0;0;0;0.37560540721426405;-0.38624082645019464;0.6674467657500122;2.339867030718062;-2.4330785940556985;3.5284719594398353;0.9693047454491646;0.07556521983516512;-0.050210777605678825;0.22851058140321698;0.942782109941853;-0.69883804121063;5.41626165591715;0.124957479218282;-0.13225924855341056;0.4547530974422528;-2.615824795966608;2.7180942597955324;-3.9897977704977716;-0.4026886791234772;-0.4223871466386665;0.0;6.93580058541405;481.4133023717934;484.3546349020358;413.26084495660086;445.87418133884637;-0.03060526088535572;0.05213297667596262;-0.8949372235664277;12.0;-44.02102940362151;-0.0;12.0;-52.87588596249815;-0.0;12.0;-41.04834691189926;-0.0;12.0;-37.605755765851896;-0.0;326.3787379899883;326.3787379899883;1754.9143899289843;326.3787379899883;326.3787379899883;1754.9143899289843;326.3787379899883;326.3787379899883;1754.9143899289843;0.16
343.7240045541009;343.7240045541009;1714.0682973508992;0;0;0;0;0.39899256001277844;-0.4106030705746068;0.7024194538285454;2.3375527440400417;-2.4394394495173914;3.466052390884342;0.9619383093892443;0.07948146532184486;-0.0546885997569529;0.25566881439919287;0.9345576877321712;-0.7229155647748136;5.845152780200521;0.1266370621121282;-0.14637815280118438;0.5102608401812204;-2.6238627605606237;2.7356437875260124;-3.9401378789389097;-0.40227340050164984;-0.4203612082636495;0.0;6.987394653141777;482.03839811532487;479.5881714299441;414.55665871190854;456.0064470977994;-0.01886380889554926;0.05173074384880168;-0.9781251494788541;12.0;-45.40417333923375;-0.0;12.0;-54.40798029689771;-0.0;12.0;-41.93012611911846;-0.0;12.0;-38.902032856930006;-0.0;343.7240045541009;343.7240045541009;1714.0682973508992;343.7240045541009;343.7240045541009;1714.0682973508992;343.7240045541009;343.7240045541009;1714.0682973508992;0.17
360.6588694257407;360.6588694257407;1672.851728151469;0;0;0;0;0.42235501147698024;-0.43503459363766983;0.7367865851448231;2.3349285101745294;-2.4469425841477803;3.407358251066812;0.9531561592469276;0.08319836686830098;-0.05942200618512083;0.28467594387485495;0.9253859980935268;-0.7489873944181911;6.285319397807992;0.1267509878380403;-0.16134516900473653;0.5702049312513324;-2.631565427521736;2.754419291655416;-3.8941045267518395;-0.40221489142238004;-0.4185459098263504;0.0;7.036318745194057;481.36931050906384;473.7912918289224;417.0571129542317;466.830095752237;-0.005598411675509281;0.049401709877286114;-1.0659088604708755;12.0;-46.61127775006698;-0.0;12.0;-55.70865316964593;-0.0;11.375889494406884;-42.66345720311977;0.0;12.0;-40.133093768911365;-0.0;360.6588694257407;360.6588694257407;1672.851728151469;359.4950723430304;359.4950723430304;1557.9180882510161;360.6588694257407;360.6588694257407;1672.851728151469;0.18
377.18015178612086;377.18015178612086;1631.3688240105448;0;0;0;0;0.44568968805417175;-0.45954731769984986;0.770585436563933;2.3320004018527434;-2.455688019988393;3.3523938911615936;0.9427846497449058;0.0866946494472415;-0.06441428163531936;0.31542343331466827;0.9152086173344651;-0.7763076763960877;6.703959690710741;0.12511053287945523;-0.1770725323990904;0.6345983521910474;-2.6389377752955183;2.774530741824218;-3.8517189366329987;-0.40252131769608873;-0.4169360175120609;0.0;7.082593215008689;479.22009647240174;467.2394840382603;421.0287568291257;477.9215584759535;0.008632319923041532;0.044790617201977787;-1.154334460249478;12.0;-47.63167719692979;-0.0;12.0;-56.774459315771125;-0.0;10.188765843157837;-43.278794047980725;0.0;12.0;-41.305720659413495;-0.0;377.18015178612086;377.18015178612086;1631.3688240105448;372.66886716189873;372.66886716189873;1300.9285660266341;377.18015178612086;377.18015178612086;1631.3688240105448;0.19
393.2856922073716;393.2856922073716;1589.719664130318;0;0;0;0;0.4689936428148301;-0.48415408451877556;0.8038528973104138;2.3287878419755126;-2.465759410052759;3.3010775318293173;0.9307302368097545;0.08996275380057016;-0.06963967283032932;0.3475604194737573;0.9040605608191982;-0.8031541879860489;7.036041854837853;0.12161471452109865;-0.1933692996523744;0.7029734722702753;-2.645998805218297;2.7960713945359115;-3.812912052592102;-0.4031943793289467;-0.4155234606759188;0.0;7.126316634103746;475.78060427856735;460.7332534936405;426.3737383071488;488.3357554564691;0.022398160700956425;0.038109588979664176;-1.234970591385132;12.0;-48.45662631764175;-0.0;12.0;-57.60999033284632;-0.0;9.412194728539351;-43.815842759433224;0.0;12.0;-42.41727669611698;-0.0;393.2856922073716;393.2856922073716;1589.719664130318;384.06658857431495;384.06658857431495;1125.2271204789572;393.2856922073716;393.2856922073716;1589.719664130318;0.2
408.97431040178463;408.97431040178463;1547.9999493105736;0;0;0;0;0.4922641578811302;-0.5088685897328018;0.8366251549016774;2.3253173321527623;-2.477243750724395;3.2533506572669406;0.9170365061341152;0.09301630848598376;-0.07503672268214424;0.38047536454035025;0.892104264640276;-0.8278634927680386;7.23398148508105;0.11630957955291307;-0.20994249287889846;0.7742960835122062;-2.6527750264440493;2.8191383858233676;-3.777638841945165;-0.4042379801643404;-0.41430354569077493;0.0;7.167575442264747;471.6530682855482;455.1442615118914;432.4954030192908;497.20847936864635;0.034251277059389566;0.03027071342775201;-1.3010467283315803;10.808302907931768;-49.083413896479385;0.0;11.50859037214553;-58.22857602589152;0.0;8.899364305481255;-44.30013090388298;0.0;12.0;-43.45650456772972;-0.0;408.05898968235556;408.05898968235556;1457.7056432722422;394.2184736927363;394.2184736927363;1001.9884588433983;408.97431040178463;408.97431040178463;1547.9999493105736;0.21
422.0268156653167;422.0268156653167;1287.4791308720587;0;0;0;0;0.5154988944266985;-0.5337051517572408;0.8689368209873772;2.321638168268943;-2.4901780529038042;3.208956792339187;0.901947695277461;0.09590210098444002;-0.08050845768804284;0.4132935158590738;0.8800810724151785;-0.8502175136199271;7.220793426844389;0.10945696388758339;-0.2264301843021879;0.8468851309754303;-2.6593169638453418;2.843776837983593;-3.7456464723522784;-0.40563903089266606;-0.4132630232957997;0.0;7.206623143105301;468.2064838053955;451.8559136435596;438.1203617767803;503.23673072039765;0.04195779158603078;0.023314020363265922;-1.3413721178394469;9.114070526404184;-49.54521057788018;0.0;9.648094411883541;-58.66654526550356;0.0;8.46136944635962;-44.73914978472342;0.0;12.0;-44.39912877091585;-0.0;418.9756574389616;418.9756574389616;1076.8617457583769;403.2912389848847;403.2912389848847;895.2842839739685;424.24576008786124;424.24576008786124;1506.3007410053078;0.22
431.57073551056766;431.57073551056766;941.1644427483915;0;0;0;0;0.538696135288436;-0.558678085778782;0.9008186718420909;2.3178251437133874;-2.5045240916103046;3.167385432738996;0.8859370888280084;0.0987094477578562;-0.08593040911687146;0.44495829506967993;0.870136925397999;-0.870624647270802;6.970701102280641;0.10157041952781665;-0.2424699427935427;0.9185004086284364;-2.665702094493674;2.869953163947233;-3.7164146439430845;-0.4073611991274997;-0.4123771765236331;0.0;7.243920299905983;466.8070661220933;451.73406881365156;441.97644842988905;505.73445477354596;0.044206637694525874;0.01929363589266944;-1.3507907019907224;7.994300255421203;-49.897573883995435;0.0;8.516190851509757;-58.99412937925046;0.0;7.946399770589462;-45.126001879173465;0.0;12.0;-45.214015717772696;-0.0;427.48986736639336;427.48986736639336;839.6932338880379;411.16596873803445;411.16596873803445;776.9155910989234;439.1006815151159;439.1006815151159;1464.7082536917346;0.23
438.76707660479053;438.76707660479053;709.5292911696702;0;0;0;0;0.5618548968115206;-0.583801396081297;0.9322970418486413;2.3139499227682023;-2.52025821857257;3.1282586332176177;0.8696927347482811;0.10156904967389985;-0.09115943851697256;0.4743503262818364;0.8639009717998496;-0.888676100775546;6.4471041687117685;0.09340176528860139;-0.2577649963472348;0.9865310407613626;-2.672004949983828;2.8976488870111243;-3.689559746864976;-0.4093777533553682;-0.4116301816979625;0.0;7.279819257188355;468.6379345233432;455.62022409693805;443.0370445988012;503.90144821669855;0.03960948317697449;0.019955435623282735;-1.3224905252366561;7.456112951161417;-50.196282463180964;0.0;8.054004551368134;-59.2754329465559;0.0;7.257687827228759;-45.44471263778113;0.0;10.754272632947298;-45.86202338478852;0.0;434.91029271210357;434.91029271210357;731.6896158063233;417.5480590952009;417.5480590952009;629.5526126625995;451.22257313420164;451.22257313420164;1194.8688482649077;0.24
444.7609053483063;444.7609053483063;590.8791670206392;0;0;0;0;0.5849749436772708;-0.6090887196379358;0.96339429798867;2.3100901208600475;-2.537330482767335;3.0911607717976533;0.8540533876955729;0.104634994038024;-0.09604510174471748;0.5004194914461697;0.8612037319295733;-0.9030206244011553;5.677808197435332;0.08586322854681555;-0.27212419432096824;1.0482638376696598;-2.6783066223590737;2.9268178496148956;-3.664656981527309;-0.4116567689233736;-0.4110053851659831;0.0;7.314699577076825;473.4730154062097;463.2884542117981;441.5196866111629;497.85667550296574;0.028407441294056316;0.024997688567998107;-1.258052803806875;7.359028510991883;-50.48340356376;0.0;8.104452437883072;-59.55921456155285;0.0;6.4481228441218;-45.68442891294075;0.0;8.885179834163655;-46.32836440847616;0.0;442.21865822099846;442.21865822099846;720.5175061712229;422.25066370031084;422.25066370031084;463.825582965135;459.52208318359686;459.52208318359686;817.9111773963257;0.25
450.40508830917355;450.40508830917355;556.3364882243716;0;0;0;0;0.6080568151637388;-0.6345531243050602;0.9941287182905334;2.306322555046078;-2.555676899866159;3.055689633234373;0.8398500348264868;0.10804941294218712;-0.10045359793321712;0.5223852199546695;0.8606411486444756;-0.9117573289034977;4.72378571262112;0.07985299951086143;-0.2854807208298455;1.1013933564238334;-2.6846877148596175;2.957398958756852;-3.641293745140458;-0.41416545289489687;-0.4104874183415875;0.0;7.348924655098697;479.92401787053905;473.9019444028004;438.7212747752294;488.2134173855895;0.011772741245609564;0.032362353620252235;-1.163827244685337;7.469206266520132;-50.77859285937365;0.0;8.479047146346788;-59.87604742337087;0.0;5.673979585520555;-45.84913502368994;0.0;7.024186283879608;-46.61527775049609;0.0;450.01883151474686;450.01883151474686;768.8679933228211;425.384168106872;425.384168106872;309.0365371107184;464.12052631458346;464.12052631458346;453.112405227742;0.26
456.09368821352393;456.09368821352393;560.6409673016642;0;0;0;0;0.6311017819799314;-0.6602070546635235;1.0245149152122266;2.302716209639964;-2.5752368030849446;3.021514329365857;0.8277996110905397;0.11192171945346606;-0.10427534619627443;0.5397666021241014;0.8603430172011863;-0.912989604357671;3.6435514157975795;0.07615205942041645;-0.29784565123561635;1.1441989945692637;-2.6912209636167854;2.9893343133428596;-3.6191304143598706;-0.4168755028190068;-0.4100646497284491;0.0;7.382794602204742;486.24022438039293;486.6000729870347;436.39433738587763;475.5752612312892;-0.009069670655090671;0.03932105507809554;-1.04637471192903;7.5610896551213695;-51.08005822104234;0.0;9.02525022138067;-60.24185983809375;0.0;5.109591454715236;-45.95923671647999;0.0;5.222583009345251;-46.729825099663145;0.0;458.61341303679893;458.61341303679893;847.0100035874586;427.38135344848223;427.38135344848223;196.95818485870723;465.234390351216;465.234390351216;109.74999332239656;0.27
461.78993503948925;461.78993503948925;561.3206453254412;0;0;0;0;0.6541117567904515;-0.6860623596938095;1.0545644883845398;2.299330025765601;-2.595951766927873;2.988363226448146;0.8184513072027574;0.11632018571063887;-0.10742404712167936;0.5523288388581206;0.8581889762943905;-0.905364056262972;2.492216475423022;0.07538177360965746;-0.3092420102600803;1.1755333215659918;-2.6979688851828265;3.0225680906391137;-3.5978880073985313;-0.41976230169306455;-0.40972797485074647;0.0;7.41655508821902;490.7660699259677;500.55712129728795;436.30775322134735;460.5614378556304;-0.0328667075637237;0.043166282288439384;-0.9122958854735711;7.463007577772336;-51.36981956990713;0.0;9.624882151536248;-60.661296920698646;0.0;4.898277552156197;-46.04850071420864;0.0;3.5236493406666582;-46.68309557470729;0.0;468.0756809600888;468.0756809600888;932.3239397039856;428.9304034271448;428.9304034271448;152.75802495974665;463.15577173964925;463.15577173964925;-204.81293477346048;0.28
467.13880034689885;467.13880034689885;527.0222610732587;0;0;0;0;0.6770891829886443;-0.7121303131375182;1.08428657351154;2.296210793161279;-2.617765259360032;2.9560152288701653;0.8121538910326103;0.12126820179933176;-0.10983728876796889;0.5600320084683282;0.8519867760986635;-0.8885252794230517;1.3207391590901625;0.07797706594025679;-0.3196535847682427;1.1947987146425139;-2.7049815213023267;3.057046191498907;-3.577339310972052;-0.42280442399284124;-0.40946988033344084;0.0;7.450403728127716;492.24657294996405;514.9831975463904;439.8123335153305;443.8698474182539;-0.05830010072334049;0.041785388887810276;-0.7681101793616948;7.078060575560037;-51.62089729593778;0.0;10.186886548370556;-61.130372086561664;0.0;5.113149514486455;-46.1573200150905;0.0;1.971335261092801;-46.490236331493335;0.0;478.3064028688433;478.3064028688433;1007.8075409879068;430.83685959495034;430.83685959495034;187.99550464086553;458.2498666808068;458.2498666808068;-483.43889613644296;0.29
471.6155759771079;471.6155759771079;441.04684810924437;0;0;0;0;0.7000369042554756;-0.7384216325108043;1.1136883107701157;2.293391445713746;-2.640622733133994;2.924292377851533;0.8090450767908093;0.12674518827892425;-0.11147866440020496;0.5629868811546684;0.8396350229578942;-0.8633796788358549;0.17466560550734445;0.08417150521141897;-0.32899731764966644;1.2019116333116717;-2.7122945974522747;3.0927163444068833;-3.5573013469103336;-0.4259832853098332;-0.4092836821764473;0.0;7.484495762352973;489.9872613096686;529.1231776506037;447.50522707172496;426.33193423551336;-0.0839716182262568;0.034051732730794516;-0.620072512440219;6.385941315709873;-51.80461414926339;0.0;10.64142655539082;-61.638539834379266;0.0;5.735601200929995;-46.324003689858245;0.0;0.6163440403047775;-46.1710570070404;0.0;489.0783858390654;489.0783858390654;1060.865935011583;433.8493844223726;433.8493844223726;297.0466722204885;450.9643267452652;450.9643267452652;-718.0413917430235;0.3
474.67366120328467;474.67366120328467;301.2544779015727;0;0;0;0;0.722958019897655;-0.764946499522155;1.1427752393084822;2.2908899394624864;-2.664471802862924;2.8930524599779703;0.8090629272825807;0.13269187815580788;-0.11234039194071944;0.5614175643022334;0.8192863119632109;-0.8321139826362759;-0.9079378132158302;0.09399382167988721;-0.3371214997858494;1.1972483118708486;-2.7199282843728922;3.1295282998549507;-3.537627816011282;-0.42928280576892486;-0.4091628733683044;0.0;7.518950064084751;483.9003553180487;542.2857595692293;459.1146542318451;408.91525428898564;-0.10846714666435442;0.01998416136526355;-0.47385160781879504;5.43279724443816;-51.89688109041103;0.0;10.938421279585146;-62.1706135716809;0.0;6.660807788303545;-46.57665638795297;0.0;-0.48453500694824125;-45.75056628247761;0.0;500.0773337442067;500.0773337442067;1082.9444373128836;438.5004695742772;438.5004695742772;458.5715138587568;441.83768046287025;441.83768046287025;-899.6726854376299;0.31
475.8690126947527;475.8690126947527;117.75011204868122;0;0;0;0;0.7458557318250789;-0.7917145829673667;1.171551619847138;2.2887087032157294;-2.689262533942413;2.862182011670924;0.8119772119135618;0.13901926849612578;-0.11244492366584256;0.5556282835328715;0.7895069119888644;-0.7979727413408566;-1.8987653501299597;0.10727820258311606;-0.3438258772485635;1.181565640555299;-2.727886554896491;3.167434142836443;-3.5182019239470312;-0.43268910289519963;-0.4091005964945122;0.0;7.553855117449296;474.4533298880711;553.8986919842202;473.658590848052;392.65270074934483;-0.1304966130275446;0.0006442438318476071;-0.33412296238476413;4.313135241979036;-51.88272426234421;0.0;11.049233421618084;-62.708827154081035;0.0;7.730718042929487;-46.92823760069072;0.0;-1.2767714758655728;-45.258716485342354;0.0;510.94488906695796;510.94488906695796;1069.7374255608065;445.0128103718881;445.0128103718881;641.9935499224307;431.49262490209355;431.49262490209355;-1020.0137713670065;0.32
474.9469266165524;474.9469266165524;-90.83210433586089;0;0;0;0;0.7687331883954165;-0.8187350667293263;1.2000206954815753;2.286834547635942;-2.714948138473488;2.831590953798395;0.8174349005706856;0.14561984073132922;-0.11184429842025782;0.5459724335763454;0.7494098790341948;-0.7648565082971099;-2.780603365572213;0.12369003836582348;-0.3488951192695411;1.1558989210239146;-2.7361570190025506;3.2063890334069804;-3.498930884903329;-0.43619031355247884;-0.4090892948896795;0.0;7.589273960117434;462.53432382354043;563.5624001223811;489.7900340646372;378.51337217370065;-0.14905232605937047;-0.022192616624788577;-0.2042375332999403;3.1467557208648005;-51.758598234414094;0.0;10.967967981030217;-63.23500226463527;0.0;8.7801314835237;-47.37600983761821;0.0;-1.7210870201805122;-44.728923958058424;0.0;521.3229247858854;521.3229247858854;1021.3027739284248;453.2940634302436;453.2940634302436;816.2294786755297;420.60593980315997;420.60593980315997;-1073.683923187381;0.33
471.8830265990027;471.8830265990027;-301.83260793013017;0;0;0;0;0.7915933291585856;-0.8460166874083145;1.2281849097332767;2.2852389142530387;-2.7414861703377715;2.8012094129396816;0.8250105831762721;0.15237903991772503;-0.11061687429934279;0.5328246174504002;0.6987323019262305;-0.7368399885294007;-3.546839725501061;0.1427648794421692;-0.3521352195537072;1.1214489603068347;-2.7447111148901984;3.246352473739632;-3.479742693665016;-0.43977658480211246;-0.4091205541784529;0.0;7.625247605970882;449.268337154851;571.0746049771958;506.15673616710075;367.26028391741124;-0.16351540550228214;-0.046471475391817285;-0.08611956741648423;2.0551342131001924;-51.532451339972575;0.0;10.709574263400725;-63.73251906654838;0.0;9.675321427177515;-47.90463656498679;0.0;-1.8054708701993283;-44.195467399200936;0.0;530.8929316053036;530.8929316053036;941.5701303175811;463.00395378531437;463.00395378531437;956.8364728299692;409.85733000609105;409.85733000609105;-1060.3311923111369;0.34
466.8789976321833;466.8789976321833;-493.00941191949795;0;0;0;0;0.8144387334202484;-0.8735677846327312;1.256046099994718;2.2838783676512313;-2.768839836824576;2.7709859914629025;0.834252148535148;0.15918498767131062;-0.10886207246003704;0.5165583621860191;0.6378380794147146;-0.7177132442169303;-4.199167879974133;0.16395419493626975;-0.35340407390595924;1.079476956709761;-2.753504556154396;3.287289702781588;-3.4605844023710386;-0.4434401461847088;-0.40918507157424033;0.0;7.661797397620928;435.8333808419542;576.4169491071219;521.6422909691768;359.34704375988144;-0.17367290216194184;-0.07024675201008415;0.01956393669634792;1.1423994176496435;-51.22199517207028;0.0;10.304425098753025;-64.18775924156657;0.0;10.332735121558098;-48.49101993682541;0.0;-1.5509308301275784;-43.69036453673884;0.0;539.4039494708596;539.4039494708596;837.2069192330687;473.6548207047926;473.6548207047926;1049.3115150465064;399.8691357380517;399.8691357380517;-985.5509908571906;0.35000000000000003
460.323243813217;460.323243813217;-645.9795189584217;0;0;0;0;0.8372714745725729;-0.9013963619527303;1.28360567421504;2.282695240000759;-2.7969787830811517;2.740886160183647;0.8447150815218121;0.16593509765221987;-0.10669434287410451;0.4975322015864229;0.567647992793257;-0.710621888214492;-4.744292546216689;0.18666999784059804;-0.3526316847047997;1.0312231935844625;-2.762477940916734;3.3291725441382627;-3.441420518012551;-0.44717531399142535;-0.40927265736333657;0.0;7.698927121429786;423.3177000635585;579.7142936714062;535.455688924768;354.88588194186303;-0.17965659548791724;-0.09192525627065141;0.11304253651181763;0.4842251354156226;-50.8519397345737;0.0;9.791168880302397;-64.59086268357203;0.0;10.718245286897398;-49.10902861902516;0.0;-1.0087613078738422;-43.24053199877696;0.0;546.6860987217302;546.6860987217302;716.1987369950909;484.7084230904277;484.7084230904277;1088.713359499583;391.1526001558321;391.1526001558321;-860.2562295340739;0.36
452.73243650931033;452.73243650931033;-748.0952840262648;0;0;0;0;0.8600929812796408;-0.9295101505880873;1.3108647677150298;2.281618350629618;-2.8258788690412513;2.710889903109465;0.8559834745506649;0.17253931040212642;-0.10423753253511908;0.47608509163083823;0.4895169066306879;-0.7178403337676122;-5.19069120885249;0.210322202812949;-0.3498298810144361;0.9778569700828553;-2.771557442524721;3.371979201216306;-3.4222306086151164;-0.45097832495891316;-0.40937220404742386;0.0;7.736625374681338;412.63273336895696;581.1858180847057;547.1108501155268;353.68622103389674;-0.1818439754254854;-0.110350155764941;0.19502954921967672;0.12456338676752576;-50.45094270317016;0.0;9.21017980515269;-64.93585987720178;0.0;10.835131287430382;-49.73305288927615;0.0;-0.2510078127455868;-42.865868207557604;0.0;552.6512607780832;552.6512607780832;586.5861949743676;495.6479064201061;495.6479064201061;1077.1995732442047;384.0729082551387;384.0729082551387;-698.8353222302494;0.37
444.68914086458807;444.68914086458807;-792.834071237456;0;0;0;0;0.8829039060681267;-0.9579166654537218;1.337824372584112;2.2805637709841795;-2.8555208503688956;2.6809885942708833;0.8676799276927238;0.17892056666946718;-0.10162035233810879;0.4525398080749693;0.40508560439283464;-0.7406742307046869;-5.546232790117935;0.23434624728347192;-0.3450941072151728;0.9204555694622353;-2.7806555510463364;3.4156929023499587;-3.403006093807499;-0.45484699163531356;-0.40947161715158176;0.0;7.774868115326236;404.47048319772983;581.1033517925996;556.358227219231;355.3368197246042;-0.18076140676077124;-0.12477707995995393;0.2663791478280833;0.07747399502598107;-50.04875612650158;0.0;8.599082243907652;-65.22038078734694;0.0;10.709512817333867;-50.3401560972674;0.0;0.6417758438705299;-42.57850732225226;0.0;557.2852156824265;557.2852156824265;455.62794146321335;506.0206199665587;506.0206199665587;1021.1406719953468;378.83742470921555;378.83742470921555;-516.8636902619126;0.38
436.7849894510402;436.7849894510402;-779.2618516416269;0;0;0;0;0.9057040019317257;-0.986623243619564;1.3644854346005568;2.279435673286959;-2.8858881977305897;2.651181623777013;0.8794685519493141;0.18501359207196716;-0.09897302301555662;0.4272111627708156;0.31613176220573797;-0.7794659655701479;-5.816991328215959;0.2582219014702122;-0.3386001662803867;0.8600035158533803;-2.7896719059081097;3.4602996366351975;-3.3837467585180123;-0.4587802392226557;-0.40955774316830074;0.0;7.813621032630673;399.2838648297551;579.7629609889227;563.1153644176035;359.2984090514711;-0.1770104312805048;-0.13480896913496557;0.3278763395748596;0.33081805537739406;-49.67374488028873;0.0;7.990548273674552;-65.4451582404119;0.0;10.378640766666392;-50.911103541777855;0.0;1.5915247614187216;-42.38311716567481;0.0;560.635808101316;560.635808101316;329.41408837957033;515.4577214426021;515.4577214426021;928.8248204919232;375.5042558983629;375.5042558983629;-329.0912646374948;0.39
429.57248361120986;429.57248361120986;-711.1957000046107;0;0;0;0;0.928492008229108;-1.0156370583566507;1.3908489179955468;2.2781273540830527;-2.9169644171433906;2.6214733332887965;0.8910552451434088;0.1907630566857809;-0.09642471460214752;0.40041513547846525;0.2244360965103342;-0.8336719352179609;-6.0071743740671195;0.28148591985998217;-0.33059760040808867;0.7974013654742287;-2.7984943156489543;3.505785356896843;-3.3644575759870854;-0.4627775998137791;-0.4096163393708644;0.0;7.852841431170129;397.27638821863576;577.4675715977521;567.4178499255921;364.984526905789;-0.17121810311823982;-0.1403349870503076;0.3801622737547743;0.850058092063724;-49.350783926362986;0.0;7.411667666576886;-65.61347587537627;0.0;9.88371177362784;-51.43070482660776;0.0;2.530346092755785;-42.27791987574907;0.0;562.8002678287626;562.8002678287626;212.7866377773214;523.6795428228747;523.6795428228747;809.0521252237638;374.00459973879333;374.00459973879333;-148.07164991172948;0.4
423.52513030401144;423.52513030401144;-596.3935441392565;0;0;0;0;0.9512655481631433;-1.0449651055130484;1.4169158428646662;2.2765225380677307;-2.9487302243339633;2.5918705996014033;0.9021880365422216;0.19612186809318405;-0.09410121484025419;0.37247539642417504;0.13167153668539983;-0.9019858955789707;-6.11982614512937;0.30374106657951955;-0.32139993691435637;0.7334750523176282;-2.8070000760690763;3.5521330175549677;-3.345146196565949;-0.46683872498660217;-0.40963211839675656;0.0;7.89247952808442;398.40293662887404;574.5147623633284;569.3917949854886;371.8230112286761;-0.16400170572256795;-0.14148720942135457;0.423758215503907;1.5823833622270778;-49.099561989611615;0.0;6.883950485735424;-65.73062082072192;0.0;9.266413193061954;-51.8878273482339;0.0;3.40475419647502;-42.2561039906479;0.0;563.9129501030158;563.9129501030158;109.38337371049101;530.494047078535;530.494047078535;670.4548199673914;374.17229988885686;374.17229988885686;16.558368576455678;0.41000000000000003
419.0060922321065;419.0060922321065;-445.72202104422803;0;0;0;0;0.9740210410691164;-1.0746141622636811;1.4426873022912032;2.274497040656275;-2.981160877098574;2.5623811821943523;0.9126585131845273;0.20104995799263506;-0.09212236516119122;0.34372492277998157;0.039318279906114265;-0.9824907957884597;-6.157866187420345;0.32466278958254213;-0.31137129997610025;0.6689806012148015;-2.8150576702994194;3.5993197654290183;-3.3258212266660507;-0.470962958586781;-0.40958888326621445;0.0;7.932479235741759;402.3925777763083;571.1847344649838;569.2386367853339;379.2994650878545;-0.15593824875276566;-0.13860647731059736;0.45913748755071176;2.462302520394589;-48.93342684505363;0.0;6.42330431042223;-65.80333866434161;0.0;8.56747758692895;-52.27527324530189;0.0;4.177265981489517;-42.30737564263788;0.0;564.1334779489314;564.1334779489314;21.678957186209345;535.7923513586763;535.7923513586763;521.2112868007307;375.77566377153585;375.77566377153585;158.30873292558374;0.42
416.24775015035834;416.24775015035834;-272.08199237127013;0;0;0;0;0.9967536332494724;-1.1045907211019117;1.4681644667290505;2.271920810256246;-3.014223922732592;2.5330128177145665;0.9223038616041285;0.2055135817216848;-0.09059909206190574;0.31450208125801693;-0.05139444600033444;-1.072826744573475;-6.1250509326016;0.3440034065880482;-0.3009092072843779;0.6046030815044316;-2.8225288743905845;3.647314553694163;-3.3064912834137323;-0.47514899824353873;-0.4094697528047941;0.0;7.972778582594113;408.8001129281313;567.7268386743638;567.2216298715305;386.9857311192948;-0.1475352152083704;-0.13220253252977363;0.48679951820834083;3.41917156484981;-48.85895047283136;0.0;6.039816228972213;-65.83927227159593;0.0;7.825715194550924;-52.58956603043043;0.0;4.826180045648018;-42.41947631611547;0.0;563.6349340374344;563.6349340374344;-49.009580645014466;539.5423620468532;539.5423620468532;368.864234921743;378.5482003711046;378.5482003711046;273.73234293522;0.43
415.3454963603742;415.3454963603742;-89.0011547930643;0;0;0;0;1.019457150946775;-1.1349009042232467;1.4933485825843558;2.2686602997010916;-3.0478775559748628;2.503772958382139;0.9310082815516835;0.20948494513328098;-0.08963019765647225;0.2851421840289148;-0.13951990857873017;-1.1703640763209722;-6.026566390845824;0.3615928599394424;-0.29042442515580486;0.5409517226793624;-2.829271217153987;3.696076385758088;-3.2871647203494456;-0.47939466225121496;-0.40925746296718557;0.0;8.013309950016192;417.0798808111904;564.3464356441837;563.6475518610508;394.554985311117;-0.1392053398568253;-0.1229002100589647;0.5073159613101852;4.385633823405785;-48.87629431733952;0.0;5.737563492574684;-65.84638728766342;0.0;7.076731627302698;-52.83061792857241;0.0;5.344049665202125;-42.57954416551559;0.0;562.5921595037308;562.5921595037308;-102.51246115735808;541.7800798209312;541.7800798209312;220.09582705389175;382.2159020563586;382.2159020563586;362.0837016454341;0.44
416.2671787816319;416.2671787816319;90.91699053141338;0;0;0;0;1.0421240782050611;-1.16555036494526;1.5182409704696316;2.2645810510198467;-3.0820696872089717;2.474668965224494;0.9387025297505872;0.21294191761032716;-0.08929931853799407;0.25596666203426827;-0.22439981908726536;-1.272369843382115;-5.869137053833268;0.37733518104001607;-0.2803198792875317;0.4785544935051367;-2.8351406743147187;3.745553296374573;-3.2678498287986435;-0.48369676283703805;-0.4089347162534193;0.0;8.054000310509435;426.6643958755152;561.1954262337368;558.843071718545;401.7842615778727;-0.13125080510576081;-0.11137492664550049;0.5213384009105582;5.304982731750087;-48.98026648827835;0.0;5.514800544457829;-65.83241995496348;0.0;6.351316655474175;-53.00124784754855;0.0;5.735176751258024;-42.775227760730736;0.0;561.1708473041568;561.1708473041568;-139.72971124995297;542.5981234195734;542.5981234195734;80.45813990170313;386.51931300114745;386.51931300114745;424.8021294363797;0.45
418.87592019684064;418.87592019684064;257.32038582838993;0;0;0;0;1.0647455609930894;-1.1965441832468355;1.5428430263664097;2.259550337823648;-3.1167377068381437;2.4457084978176877;0.9453609251226979;0.21586764781111645;-0.08967252945575342;0.2272723417855585;-0.3056476970447444;-1.376156047015477;-5.660710968179387;0.3912005690579899;-0.2709711765799743;0.41785517557512564;-2.8399944346848565;3.7956820584283184;-3.2485552461191025;-0.48805107010426263;-0.40848454280386204;0.0;8.094771641988844;437.02939498331494;558.3690387732072;553.1296339829081;408.5461242454275;-0.12386047088999456;-0.098288833423549;0.5295737842191078;6.1357268976937265;-49.1618012361431;0.0;5.364726728522055;-65.80440186965399;0.0;5.673957596902031;-53.10656295318189;0.0;6.012487076467957;-42.99549587317354;0.0;559.5184657119988;559.5184657119988;-162.45215452422394;542.1318671708018;542.1318671708018;-45.858369597232695;391.22931461970944;391.22931461970944;464.88867356220294;0.46
422.96088452285477;422.96088452285477;402.89818170897195;0;0;0;0;1.0873114373598571;-1.2278867619097404;1.5671562263305607;2.2534397048768535;-3.151808839817991;2.4168998377589133;0.9509959200943503;0.21825000785500892;-0.09079695410727207;0.1993228716431299;-0.38311465613039486;-1.4792000010328639;-5.409894723015867;0.4032139383829596;-0.2627110157656881;0.359214623390203;-2.8436935704185466;3.8463885073820325;-3.2292902962055647;-0.4924523402113212;-0.4078906368398374;0.0;8.135541646244251;447.73458600163616;555.9093210516713;546.8019685014578;414.7927628134237;-0.11711972726302522;-0.08423984393303596;0.5327428453934706;6.852774997874073;-49.409538250930915;0.0;5.276777093989031;-65.7683104230507;0.0;5.061977941007804;-53.15326396648845;0.0;6.194242179292042;-43.23113035511068;0.0;557.7579034481136;557.7579034481136;-173.09473702441346;540.5444838014083;540.5444838014083;-156.1305886638105;396.1564284336997;396.1564284336997;486.26356834907097;0.47000000000000003
428.26957074977213;428.26957074977213;523.5339324536442;0;0;0;0;1.1098102919006654;-1.2595817284679103;1.5911821331308018;2.246127270624314;-3.187200942697248;2.388251958703155;0.9556509600164673;0.22008089265982847;-0.09270052189500341;0.17234342617600648;-0.4568439254240302;-1.5792312736903695;-5.125337766918856;0.41344145584431324;-0.25581882991786603;0.3029163120919718;-2.8461054701559827;3.8975883312499793;-3.210065065727322;-0.4968943806830314;-0.40713764097236566;0.0;8.176224818568818;458.43931339358113;553.8137346326293;540.1138438323675;420.5366017562133;-0.11102911945967031;-0.0697306880005804;0.5315375861127188;7.445809765979913;-49.711235677369004;0.0;5.238176251653383;-65.72886873489587;0.0;4.5255528941656795;-53.148957566798046;0.0;6.301041621176075;-43.47493208833581;0.0;555.9842176930849;555.9842176930849;-174.39215651764846;538.0125843852254;538.0125843852254;-249.04334049643194;401.15429712641435;401.15429712641435;493.1897125907326;0.48
434.5363828387873;434.5363828387873;617.9376759139359;0;0;0;0;1.132229531673325;-1.2916318467116008;1.6149224019484558;2.237499701300693;-3.2228236021787784;2.359774276290008;0.95939262478124;0.2213554599216191;-0.09539277795326206;0.14651883767162963;-0.5270205442377324;-1.6742844879454708;-4.815219407278539;0.4219767553463316;-0.2505158550203408;0.24917508479884326;-2.847105938186143;3.949188180279651;-3.1908901450634852;-0.5013701330130775;-0.40621136434294647;0.0;8.216733826663305;468.8990908409146;552.0462778610216;533.2720616714433;425.83108611222343;-0.10552664704559205;-0.05515838788453343;0.5265890281796893;7.916015050990757;-50.054862757390275;0.0;5.235444248994523;-65.68948933657524;0.0;4.06853543251228;-53.10155233966022;0.0;6.353436034465394;-43.721699978193904;0.0;554.264281274233;554.264281274233;-169.1142252766009;534.713945579493;534.713945579493;-324.48443115338716;406.11860173036416;406.11860173036416;489.8212305700207;0.49
441.50448151906244;441.50448151906244;686.9808208946135;0;0;0;0;1.1545554800095628;-1.324038940228609;1.638378782162396;2.2274538094508527;-3.2585794263487298;2.3314761226568885;0.9623029816254928;0.22207140862984814;-0.09886649194327736;0.12199458100549472;-0.5939217075669906;-1.762721508642357;-4.48691482896687;0.428928245849836;-0.24696487803411454;0.19814749529339223;-2.8465809086906226;4.001086983576118;-3.171776079363891;-0.5058717623949037;-0.40509893327568747;0.0;8.25698109119608;478.9510714470184;550.5487546859954;526.4374765273033;430.75402917004675;-0.10050943748226064;-0.04081965611362076;0.5184498374044085;8.272315027641783;-50.42932865666984;0.0;5.255623079782436;-65.65233407069286;0.0;3.689812733727601;-53.018787649138325;0.0;6.370275672896625;-43.96805425259073;0.0;552.6387083503058;552.6387083503058;-159.84198663162522;530.818228876905;530.818228876905;-383.251313910616;410.9828899356535;410.9828899356535;479.8983757023485;0.5
448.9401374090991;448.9401374090991;732.9535274148476;0;0;0;0;1.1767734843790127;-1.3568038295333051;1.6615531130257641;2.2158977655525174;-3.294365453675283;2.303366056584193;0.9644728080170825;0.22222837488628747;-0.10309974803220544;0.09887969430967546;-0.6578716734563217;-1.8432293110272122;-4.146846204724089;0.4344084307332624;-0.24527340336848055;0.1499422209620058;-2.8444277615193987;4.053177395007544;-3.1527326449248974;-0.5103907518981143;-0.40378888173911526;0.0;8.29688043320205;488.49540719377495;549.2506447175028;519.7307202793037;435.39450614995957;-0.09585225000015658;-0.026925881233500135;0.5075909945555888;8.527941081659257;-50.8248813545166;0.0;5.287123569357484;-65.61845343436482;0.0;3.3848555245544647;-52.90791256316231;0.0;6.3677485604292805;-44.21217041473379;0.0;551.1252771548739;551.1252771548739;-148.82047569500492;526.4809321395132;526.4809321395132;-426.7343108016602;415.71267976480055;415.71267976480055;466.5775697582376;0.51
456.64034245574936;456.64034245574936;758.8971857339552;0;0;0;0;1.1988680344812577;-1.3899262836929056;1.6844473122317583;2.2027519360855274;-3.330074628045518;2.275451135962459;0.9659960213587364;0.22182749212684447;-0.10805822027077426;0.07725070541914354;-0.7192035057943458;-1.914800888811031;-3.8004809103291572;0.4385256449422555;-0.24549888568685982;0.10462944561945535;-2.8405562517482963;4.105347314679761;-3.133768082968284;-0.5149180019666382;-0.4022711928236763;0.0;8.336348661343745;497.47708600280765;548.0769366461233;513.2402284166957;439.84324439714555;-0.09142194275956074;-0.013621929227107388;0.4944086760979717;8.697735229055812;-51.23324878998718;0.0;5.320204684707289;-65.58797002927732;0.0;3.1471817324980798;-52.775505525934136;0.0;6.358964154852311;-44.45347606105724;0.0;549.7231195927077;549.7231195927077;-137.88318233016741;521.840287394529;521.840287394529;-456.62785694982324;420.29890661862413;420.29890661862413;452.36707663078516;0.52
464.43518975452344;464.43518975452344;768.0866874596511;0;0;0;0;1.220822886957907;-1.4234049868944672;1.7070633575317915;2.1879493763547697;-3.3655972991530323;2.247736258993828;0.9669653840120372;0.22087113228488806;-0.11369740950443785;0.057155823129942385;-0.7782285760831475;-1.9767062221230245;-3.452422625203053;0.44137821996377335;-0.24765487597602304;0.06224862961487585;-2.8348890810180096;4.157481443613199;-3.1148884022193806;-0.5194439364013409;-0.40053730281753713;0.0;8.37530700108359;505.87059124368955;546.9539305456935;507.0306652650225;444.18593370645596;-0.0870881269633847;-0.0010046595709428232;0.47923673810588324;8.796284725814264;-51.647602804878844;0.0;5.347160183024908;-65.56027813880718;0.0;2.9695623491365746;-52.62740930463907;0.0;6.353912788045382;-44.69234633193555;0.0;548.4171119633904;548.4171119633904;-128.43211930754478;517.0165121411059;517.0165121411059;-474.6997869717577;424.7514407128812;424.7514407128812;439.1344689258342;0.53
472.1866841964565;472.1866841964565;763.6775277471511;0;0;0;0;1.2426211934477336;-1.457237520005497;1.729403262452203;2.1714360145651157;-3.4008227109627547;2.2202236444021075;0.9674693803695067;0.21936282111120645;-0.11996470486405146;0.03861891179841087;-0.8352138200909816;-2.0284591142290402;-3.106544574699358;0.4430508432301486;-0.25171725592717703;0.022814527795252715;-2.8273621473718693;4.209462832652126;-3.0960968242696616;-0.5239586145812897;-0.39858007796100975;0.0;8.413682303543013;513.6681502529133;545.8133309794667;501.15051203030816;448.498755518609;-0.08273070508005174;0.010861178608988066;0.46236087115958086;8.836799872689745;-52.06241746544341;0.0;5.362304241733781;-65.53424032896794;0.0;2.8448991419479293;-52.4687493035311;0.0;6.35965262768357;-44.92981947999283;0.0;547.1820899318755;547.1820899318755;-121.45497181779024;512.1127154601776;512.1127154601776;-482.62905753829307;429.0931067620156;429.0931067620156;428.15665147829714;0.54
479.78545289333726;479.78545289333726;748.4984528224851;0;0;0;0;1.2642456290976276;-1.4914203568143312;1.7514690476749066;2.153170567565599;-3.4356404419698756;2.192912484434557;0.9675900827608157;0.21730730551815952;-0.12680121032403063;0.021643007456301037;-0.8903662091614187;-2.0697841340034966;-2.7661273136252165;0.44361276691412416;-0.25763006893502854;-0.013678386672270993;-2.817924514583564;4.261174387508367;-3.0773934077660385;-0.5284518479779328;-0.3963937718768749;0.0;8.45140800437658;520.8714437610749;544.595026993051;495.6381687542028;452.84552699993526;-0.07824504464696448;0.021930635942766646;0.4440317745683027;8.830571957688896;-52.473277374120784;0.0;5.361836325284629;-65.50836969957969;0.0;2.7667767472566727;-52.30400383647135;0.0;6.380616256766868;-45.16734368237203;0.0;545.9866716728111;545.9866716728111;-117.56353382154657;507.21679295055185;507.21679295055185;-481.908733209165;433.3544238977638;433.3544238977638;420.19129390132116;0.55
487.14649184698357;487.14649184698357;724.956604611481;0;0;0;0;1.28567851905574;-1.5259488742852354;1.773262709840381;2.1331242298830797;-3.4699417629323484;2.1657987757274046;0.9674018081046853;0.21471074181312041;-0.1341433330337656;0.006213310588981855;-0.9438236447484301;-2.100586343493669;-2.4339785691430427;0.4431174981536553;-0.26531072606433675;-0.047252784952251596;-2.80653814340955;4.3125002937376715;-3.058774857519302;-0.532913317825266;-0.3939739697262732;0.0;8.488424827867876;527.4862486281862;543.248903568145;490.52634463759637;457.2760247984384;-0.0735453971585129;0.032169928790609065;0.42447599256524104;8.786839805224602;-52.87667494193281;0.0;5.343643713120628;-65.48099201853303;0.0;2.729733108684788;-52.137099353341796;0.0;6.4189686195554705;-45.406559691378774;0.0;544.7965878998674;544.7965878998674;-117.04214350833138;502.4037519222321;502.4037519222321;-473.8037469785004;437.5691488995526;437.5691488995526;415.5563564957346;0.56
494.20474131419945;494.20474131419945;695.0210121851653;0;0;0;0;1.3069019608879138;-1.560817375842855;1.7947861894869668;2.1112801769684353;-3.5036208819278754;2.1388753143194608;0.9669703877406314;0.21158096911485144;-0.14192416314613202;-0.007700302361695175;-0.9956514046580307;-2.1209251608352506;-2.1125254573090197;0.4416036277662698;-0.2746545502976019;-0.07794628906522254;-2.7931774266569778;4.363327329667635;-3.040234504949644;-0.5373326903651525;-0.3913175235790159;0.0;8.524681248034145;533.5193775298142;541.7359399821279;485.8447786565007;461.8252053420905;-0.06856698866409253;0.04155109955047382;0.40390405951002467;8.712916896130421;-53.26982130408896;0.0;5.307078990030556;-65.45038553935564;0.0;2.7293095630229205;-51.97150962068448;0.0;6.474977927695845;-45.649120255804156;0.0;543.5774893783082;543.5774893783082;-119.89903879808764;497.73804288232003;497.73804288232003;-459.3502710109086;441.7706301506137;441.7706301506137;414.2102599017328;0.5700000000000001
500.9109875911724;500.9109875911724;660.2552078788425;0;0;0;0;1.3278979412580134;-1.5960191264316899;1.8160413396516213;2.0876329214332845;-3.5365760527225394;2.1121318309829245;0.9663529059724809;0.20792783076627644;-0.15007468829687773;-0.020141157960897493;-1.0458432736169299;-2.1309926945666477;-1.8038783027212235;0.43909649878819534;-0.28553872868379254;-0.10580991699447076;-2.777828567892572;4.41354604159523;-3.0217624356206363;-0.5416997262858536;-0.38842248230845094;0.0;8.560133728180425;538.9773124154493;540.0287704890887;481.62148475430627;466.51314032009697;-0.06326706124926582;0.0500493818570008;0.3825162300191922;8.61446453678899;-53.650484552331726;0.0;5.252734010819843;-65.41489835046345;0.0;2.761944273164197;-51.81034403940434;0.0;6.547379605537893;-45.89654535749899;0.0;542.2972429551198;542.2972429551198;-125.91664377321831;493.2756066846899;493.2756066846899;-439.3836412965246;445.9889408715684;445.9889408715684;415.82888581830207;0.58
507.2283621422168;507.2283621422168;621.8765118326901;0;0;0;0;1.3486484455846928;-1.6315463978937883;1.8370298963984826;2.062187557823655;-3.568710529645488;2.0855552391223187;0.9655977949444159;0.20376350744751232;-0.1585248854733898;-0.031163955410965477;-1.094326526765105;-2.131096190520115;-1.5098704065938924;0.4356104635494902;-0.2978257882559986;-0.1309069328425285;-2.760488840403558;4.463051763021264;-3.0033457353983644;-0.5460043815763069;-0.3852880184303977;0.0;8.594746765043135;543.8660164498851;538.1118269427091;477.88279363498395;471.345537941204;-0.057625052445549246;0.057642628884170016;0.3605063621934691;8.49582895116883;-54.01686109540841;0.0;5.18222183133652;-65.37304419033934;0.0;2.824767348912955;-51.656415908907285;0.0;6.633722813518395;-46.150111328195344;0.0;540.92774789026;540.92774789026;-134.69873425857395;489.06546479446627;489.06546479446627;-414.5832591074003;450.24874038768377;450.24874038768377;419.8774754159307;0.59
513.129547384162;513.129547384162;580.826008925633;0;0;0;0;1.3691355597227726;-1.6673905230777593;1.85775345226267;2.0349589275381;-3.5999333594941083;2.059129967361558;0.9647451987004204;0.1991028285746484;-0.1672047244712887;-0.040833140371273016;-1.1409699781711227;-2.121643818579831;-1.2320802324858915;0.4311515213461332;-0.31136671822524636;-0.15331194699610412;-2.741165759051089;4.5117454672992805;-2.984968826510678;-0.5502368977939868;-0.38191435361144255;0.0;8.628492765216343;548.1915086643112;535.9811492423024;474.65249516166085;476.31473851825183;-0.0516420531924473;0.06431219285223601;0.33806456699898857;8.36038716100418;-54.367480708209904;0.0;5.097972418041401;-65.32357820385977;0.0;2.9153473577692477;-51.512286212579234;0.0;6.73069300405894;-46.41077130950102;0.0;539.4463139935491;539.4463139935491;-145.71351868856607;485.15077776270954;485.15077776270954;-385.52488207694694;454.5678005587379;454.5678005587379;425.6762928071473;0.6
518.5946910377644;518.5946910377644;537.8386224828769;0;0;0;0;1.3893415630117767;-1.703541957032256;1.8782134333265617;2.0059707312428916;-3.6301600077374205;2.0328383507909016;0.9638275368059576;0.19396353312016545;-0.17604510513720925;-0.049221418827292016;-1.1855943506620845;-2.1031328383639796;-0.9718425792918486;0.4257201659950273;-0.32600384525779863;-0.17311017924046915;-2.7198761933370923;4.559534450104006;-2.9666138665978967;-0.5543878805186822;-0.3783026840164157;0.0;8.661351781310312;551.9608785838584;533.6439293305065;471.95038900784255;481.4010754816672;-0.045339664900119224;0.07004471374106136;0.3153791291798002;8.210867305092197;-54.701142583670844;0.0;5.003044829605841;-65.26555435722935;0.0;3.0314293778359063;-51.380282325030564;0.0;6.834405415148854;-46.67910405873032;0.0;537.8366468079665;537.8366468079665;-158.33226291452195;481.5693735494869;481.5693735494869;-352.7327774244908;458.95612612615315;458.95612612615315;432.4592362450419;0.61
